[
  {
    "codeSiren": "200071082",
    "nom": "CA Montluçon Communauté",
    "slug": "ca-montlucon-communaute-200071082",
    "codesDepartements": [
      "03"
    ],
    "codesCommunes": [
      "03185",
      "03101"
    ],
    "population": 59380,
    "centre": {
      "lat": 46.2654,
      "lon": 2.5734
    }
  },
  {
    "codeSiren": "200071363",
    "nom": "CA Vichy Communauté",
    "slug": "ca-vichy-communaute-200071363",
    "codesDepartements": [
      "03"
    ],
    "codesCommunes": [
      "03310",
      "03095",
      "03023"
    ],
    "population": 84566,
    "centre": {
      "lat": 46.0908,
      "lon": 3.5453
    }
  },
  {
    "codeSiren": "200071140",
    "nom": "CA Moulins Communauté",
    "slug": "ca-moulins-communaute-200071140",
    "codesDepartements": [
      "03",
      "58"
    ],
    "codesCommunes": [
      "03190",
      "03321"
    ],
    "population": 64246,
    "centre": {
      "lat": 46.5938,
      "lon": 3.28
    }
  },
  {
    "codeSiren": "200071512",
    "nom": "CC Commentry Montmarault Néris Communauté",
    "slug": "cc-commentry-montmarault-neris-communaute-200071512",
    "codesDepartements": [
      "03"
    ],
    "codesCommunes": [
      "03082"
    ],
    "population": 25346,
    "centre": {
      "lat": 46.3576,
      "lon": 2.8817
    }
  },
  {
    "codeSiren": "200071389",
    "nom": "CC Saint-Pourçain Sioule Limagne",
    "slug": "cc-saint-pourcain-sioule-limagne-200071389",
    "codesDepartements": [
      "03"
    ],
    "codesCommunes": [
      "03118",
      "03254"
    ],
    "population": 33672,
    "centre": {
      "lat": 46.2515,
      "lon": 3.1678
    }
  },
  {
    "codeSiren": "200034700",
    "nom": "CA Durance-Lubéron-Verdon Agglomération",
    "slug": "ca-durance-luberon-verdon-agglomeration-200034700",
    "codesDepartements": [
      "04",
      "83"
    ],
    "codesCommunes": [
      "04112",
      "04143",
      "04242",
      "04152",
      "04197"
    ],
    "population": 63654,
    "centre": {
      "lat": 43.8428,
      "lon": 5.9219
    }
  },
  {
    "codeSiren": "200067437",
    "nom": "CA Provence-Alpes-Agglomération",
    "slug": "ca-provence-alpes-agglomeration-200067437",
    "codesDepartements": [
      "04"
    ],
    "codesCommunes": [
      "04070",
      "04049",
      "04116"
    ],
    "population": 48726,
    "centre": {
      "lat": 44.0818,
      "lon": 6.2056
    }
  },
  {
    "codeSiren": "200068765",
    "nom": "CC du Sisteronais-Buëch",
    "slug": "cc-du-sisteronais-buech-200068765",
    "codesDepartements": [
      "04",
      "05",
      "26"
    ],
    "codesCommunes": [
      "04209"
    ],
    "population": 25482,
    "centre": {
      "lat": 44.3256,
      "lon": 5.8478
    }
  },
  {
    "codeSiren": "240400440",
    "nom": "CC Pays Forcalquier et Montagne de Lure",
    "slug": "cc-pays-forcalquier-et-montagne-de-lure-240400440",
    "codesDepartements": [
      "04"
    ],
    "codesCommunes": [
      "04088"
    ],
    "population": 9996,
    "centre": {
      "lat": 44.0215,
      "lon": 5.796
    }
  },
  {
    "codeSiren": "200040392",
    "nom": "CA Le Grand Périgueux",
    "slug": "ca-le-grand-perigueux-200040392",
    "codesDepartements": [
      "24"
    ],
    "codesCommunes": [
      "24322",
      "24053",
      "24138",
      "24557",
      "24312"
    ],
    "population": 104933,
    "centre": {
      "lat": 45.102,
      "lon": 0.7416
    }
  },
  {
    "codeSiren": "200070647",
    "nom": "CA Bergeracoise",
    "slug": "ca-bergeracoise-200070647",
    "codesDepartements": [
      "24"
    ],
    "codesCommunes": [
      "24037"
    ],
    "population": 61551,
    "centre": {
      "lat": 44.8627,
      "lon": 0.4289
    }
  },
  {
    "codeSiren": "200027217",
    "nom": "CC Sarlat-Périgord Noir",
    "slug": "cc-sarlat-perigord-noir-200027217",
    "codesDepartements": [
      "24"
    ],
    "codesCommunes": [
      "24520"
    ],
    "population": 16168,
    "centre": {
      "lat": 44.9028,
      "lon": 1.197
    }
  },
  {
    "codeSiren": "200041150",
    "nom": "CC Terrassonnais Haut Périgord Noir",
    "slug": "cc-terrassonnais-haut-perigord-noir-200041150",
    "codesDepartements": [
      "24"
    ],
    "codesCommunes": [
      "24547"
    ],
    "population": 22161,
    "centre": {
      "lat": 45.1709,
      "lon": 1.172
    }
  },
  {
    "codeSiren": "200040384",
    "nom": "CC Isle Double Landais",
    "slug": "cc-isle-double-landais-200040384",
    "codesDepartements": [
      "24"
    ],
    "codesCommunes": [
      "24294"
    ],
    "population": 12546,
    "centre": {
      "lat": 45.066,
      "lon": 0.1554
    }
  },
  {
    "codeSiren": "200040095",
    "nom": "CC Isle Vern Salembre en Périgord",
    "slug": "cc-isle-vern-salembre-en-perigord-200040095",
    "codesDepartements": [
      "24"
    ],
    "codesCommunes": [
      "24372"
    ],
    "population": 18912,
    "centre": {
      "lat": 45.1197,
      "lon": 0.4709
    }
  },
  {
    "codeSiren": "200066926",
    "nom": "CA Grand Auch Coeur de Gascogne",
    "slug": "ca-grand-auch-coeur-de-gascogne-200066926",
    "codesDepartements": [
      "32"
    ],
    "codesCommunes": [
      "32013",
      "32307"
    ],
    "population": 39498,
    "centre": {
      "lat": 43.6966,
      "lon": 0.5752
    }
  },
  {
    "codeSiren": "200023620",
    "nom": "CC de la Gascogne Toulousaine",
    "slug": "cc-de-la-gascogne-toulousaine-200023620",
    "codesDepartements": [
      "32"
    ],
    "codesCommunes": [
      "32160"
    ],
    "population": 17060,
    "centre": {
      "lat": 43.5916,
      "lon": 1.0667
    }
  },
  {
    "codeSiren": "243200417",
    "nom": "CC de la Tenarèze",
    "slug": "cc-de-la-tenareze-243200417",
    "codesDepartements": [
      "32"
    ],
    "codesCommunes": [
      "32107"
    ],
    "population": 14327,
    "centre": {
      "lat": 43.934,
      "lon": 0.3257
    }
  },
  {
    "codeSiren": "243200391",
    "nom": "CC de la Lomagne Gersoise",
    "slug": "cc-de-la-lomagne-gersoise-243200391",
    "codesDepartements": [
      "32"
    ],
    "codesCommunes": [
      "32132",
      "32208"
    ],
    "population": 19309,
    "centre": {
      "lat": 43.9168,
      "lon": 0.6378
    }
  },
  {
    "codeSiren": "243200458",
    "nom": "CC du Grand Armagnac",
    "slug": "cc-du-grand-armagnac-243200458",
    "codesDepartements": [
      "32"
    ],
    "codesCommunes": [
      "32119"
    ],
    "population": 13441,
    "centre": {
      "lat": 43.8664,
      "lon": 0.0358
    }
  },
  {
    "codeSiren": "243200607",
    "nom": "CC Artagnan de Fezensac",
    "slug": "cc-artagnan-de-fezensac-243200607",
    "codesDepartements": [
      "32"
    ],
    "codesCommunes": [
      "32462"
    ],
    "population": 6953,
    "centre": {
      "lat": 43.7218,
      "lon": 0.2691
    }
  },
  {
    "codeSiren": "243200425",
    "nom": "CC Coeur d'Astarac en Gascogne",
    "slug": "cc-coeur-d-astarac-en-gascogne-243200425",
    "codesDepartements": [
      "32"
    ],
    "codesCommunes": [
      "32256"
    ],
    "population": 7720,
    "centre": {
      "lat": 43.5159,
      "lon": 0.304
    }
  },
  {
    "codeSiren": "200042372",
    "nom": "CC des Coteaux Arrats Gimone",
    "slug": "cc-des-coteaux-arrats-gimone-200042372",
    "codesDepartements": [
      "32"
    ],
    "codesCommunes": [
      "32147"
    ],
    "population": 10784,
    "centre": {
      "lat": 43.5507,
      "lon": 0.8091
    }
  },
  {
    "codeSiren": "243600327",
    "nom": "CA Châteauroux Métropole",
    "slug": "ca-chateauroux-metropole-243600327",
    "codesDepartements": [
      "36"
    ],
    "codesCommunes": [
      "36044",
      "36063",
      "36159",
      "36005",
      "36202"
    ],
    "population": 72566,
    "centre": {
      "lat": 46.7836,
      "lon": 1.7242
    }
  },
  {
    "codeSiren": "243600236",
    "nom": "CC du Pays d'Issoudun",
    "slug": "cc-du-pays-d-issoudun-243600236",
    "codesDepartements": [
      "18",
      "36"
    ],
    "codesCommunes": [
      "36088"
    ],
    "population": 18778,
    "centre": {
      "lat": 46.9525,
      "lon": 2.0235
    }
  },
  {
    "codeSiren": "243600319",
    "nom": "CC Brenne - Val de Creuse",
    "slug": "cc-brenne-val-de-creuse-243600319",
    "codesDepartements": [
      "36"
    ],
    "codesCommunes": [
      "36018"
    ],
    "population": 17565,
    "centre": {
      "lat": 46.6143,
      "lon": 1.2144
    }
  },
  {
    "codeSiren": "200068872",
    "nom": "CC Éguzon - Argenton - Vallée de la Creuse",
    "slug": "cc-eguzon-argenton-vallee-de-la-creuse-200068872",
    "codesDepartements": [
      "36"
    ],
    "codesCommunes": [
      "36006"
    ],
    "population": 19302,
    "centre": {
      "lat": 46.573,
      "lon": 1.5642
    }
  },
  {
    "codeSiren": "243600301",
    "nom": "CC Val de l'Indre - Brenne",
    "slug": "cc-val-de-l-indre-brenne-243600301",
    "codesDepartements": [
      "36"
    ],
    "codesCommunes": [
      "36031"
    ],
    "population": 13242,
    "centre": {
      "lat": 46.8486,
      "lon": 1.4432
    }
  },
  {
    "codeSiren": "243600350",
    "nom": "CC de la Châtre et Sainte-Sévère",
    "slug": "cc-de-la-chatre-et-sainte-severe-243600350",
    "codesDepartements": [
      "36"
    ],
    "codesCommunes": [
      "36046"
    ],
    "population": 16134,
    "centre": {
      "lat": 46.5871,
      "lon": 2.0413
    }
  },
  {
    "codeSiren": "200096956",
    "nom": "CA Agglomération d'Agen",
    "slug": "ca-agglomeration-d-agen-200096956",
    "codesDepartements": [
      "47"
    ],
    "codesCommunes": [
      "47001",
      "47201",
      "47032",
      "47031",
      "47100"
    ],
    "population": 101727,
    "centre": {
      "lat": 44.168,
      "lon": 0.7114
    }
  },
  {
    "codeSiren": "200023307",
    "nom": "CA du Grand Villeneuvois",
    "slug": "ca-du-grand-villeneuvois-200023307",
    "codesDepartements": [
      "47"
    ],
    "codesCommunes": [
      "47323",
      "47252"
    ],
    "population": 47899,
    "centre": {
      "lat": 44.3548,
      "lon": 0.6674
    }
  },
  {
    "codeSiren": "200030674",
    "nom": "CA Val de Garonne Agglomération",
    "slug": "ca-val-de-garonne-agglomeration-200030674",
    "codesDepartements": [
      "47"
    ],
    "codesCommunes": [
      "47157",
      "47310"
    ],
    "population": 60690,
    "centre": {
      "lat": 44.4714,
      "lon": 0.2223
    }
  },
  {
    "codeSiren": "200068948",
    "nom": "CC Albret Communauté",
    "slug": "cc-albret-communaute-200068948",
    "codesDepartements": [
      "47"
    ],
    "codesCommunes": [
      "47195"
    ],
    "population": 25866,
    "centre": {
      "lat": 44.1274,
      "lon": 0.323
    }
  },
  {
    "codeSiren": "245400676",
    "nom": "Métropole du Grand Nancy",
    "slug": "metropole-du-grand-nancy-245400676",
    "codesDepartements": [
      "54"
    ],
    "codesCommunes": [
      "54395",
      "54547",
      "54304",
      "54578",
      "54482"
    ],
    "population": 258208,
    "centre": {
      "lat": 48.6731,
      "lon": 6.1837
    }
  },
  {
    "codeSiren": "200070324",
    "nom": "CC du Territoire de Lunéville à Baccarat",
    "slug": "cc-du-territoire-de-luneville-a-baccarat-200070324",
    "codesDepartements": [
      "54"
    ],
    "codesCommunes": [
      "54329"
    ],
    "population": 40609,
    "centre": {
      "lat": 48.5179,
      "lon": 6.6309
    }
  },
  {
    "codeSiren": "200070563",
    "nom": "CC Terres Touloises",
    "slug": "cc-terres-touloises-200070563",
    "codesDepartements": [
      "54"
    ],
    "codesCommunes": [
      "54528"
    ],
    "population": 44293,
    "centre": {
      "lat": 48.7325,
      "lon": 5.9001
    }
  },
  {
    "codeSiren": "245400262",
    "nom": "CA Grand Longwy Agglomération",
    "slug": "ca-grand-longwy-agglomeration-245400262",
    "codesDepartements": [
      "54"
    ],
    "codesCommunes": [
      "54323"
    ],
    "population": 63645,
    "centre": {
      "lat": 49.475,
      "lon": 5.7842
    }
  },
  {
    "codeSiren": "200041515",
    "nom": "CC du Bassin de Pont-à-Mousson",
    "slug": "cc-du-bassin-de-pont-a-mousson-200041515",
    "codesDepartements": [
      "54"
    ],
    "codesCommunes": [
      "54431"
    ],
    "population": 40203,
    "centre": {
      "lat": 48.886,
      "lon": 6.0527
    }
  },
  {
    "codeSiren": "245701404",
    "nom": "CC du Pays Haut Val d'Alzette",
    "slug": "cc-du-pays-haut-val-d-alzette-245701404",
    "codesDepartements": [
      "54",
      "57"
    ],
    "codesCommunes": [
      "54580"
    ],
    "population": 29465,
    "centre": {
      "lat": 49.4312,
      "lon": 5.9654
    }
  },
  {
    "codeSiren": "200093201",
    "nom": "Métropole Européenne de Lille",
    "slug": "metropole-europeenne-de-lille-200093201",
    "codesDepartements": [
      "59"
    ],
    "codesCommunes": [
      "59350",
      "59512",
      "59599",
      "59009",
      "59650",
      "59378"
    ],
    "population": 1194040,
    "centre": {
      "lat": 50.6472,
      "lon": 3.0308
    }
  },
  {
    "codeSiren": "245900428",
    "nom": "CU de Dunkerque",
    "slug": "cu-de-dunkerque-245900428",
    "codesDepartements": [
      "59"
    ],
    "codesCommunes": [
      "59183"
    ],
    "population": 192635,
    "centre": {
      "lat": 51.0004,
      "lon": 2.3326
    }
  },
  {
    "codeSiren": "245901160",
    "nom": "CA Valenciennes Métropole",
    "slug": "ca-valenciennes-metropole-245901160",
    "codesDepartements": [
      "59"
    ],
    "codesCommunes": [
      "59606"
    ],
    "population": 191885,
    "centre": {
      "lat": 50.3734,
      "lon": 3.55
    }
  },
  {
    "codeSiren": "200044618",
    "nom": "CA Douaisis Agglo",
    "slug": "ca-douaisis-agglo-200044618",
    "codesDepartements": [
      "59"
    ],
    "codesCommunes": [
      "59178"
    ],
    "population": 148901,
    "centre": {
      "lat": 50.362,
      "lon": 3.1172
    }
  },
  {
    "codeSiren": "200068500",
    "nom": "CA de Cambrai",
    "slug": "ca-de-cambrai-200068500",
    "codesDepartements": [
      "59"
    ],
    "codesCommunes": [
      "59122"
    ],
    "population": 80469,
    "centre": {
      "lat": 50.139,
      "lon": 3.2077
    }
  },
  {
    "codeSiren": "246300701",
    "nom": "Clermont Auvergne Métropole",
    "slug": "clermont-auvergne-metropole-246300701",
    "codesDepartements": [
      "63"
    ],
    "codesCommunes": [
      "63113",
      "63124",
      "63075",
      "63284",
      "63032",
      "63014",
      "63164"
    ],
    "population": 296677,
    "centre": {
      "lat": 45.774,
      "lon": 3.1156
    }
  },
  {
    "codeSiren": "200070753",
    "nom": "CA Riom Limagne et Volcans",
    "slug": "ca-riom-limagne-et-volcans-200070753",
    "codesDepartements": [
      "63"
    ],
    "codesCommunes": [
      "63300"
    ],
    "population": 68319,
    "centre": {
      "lat": 45.8905,
      "lon": 3.0811
    }
  },
  {
    "codeSiren": "200070407",
    "nom": "CA Agglo Pays d'Issoire",
    "slug": "ca-agglo-pays-d-issoire-200070407",
    "codesDepartements": [
      "63"
    ],
    "codesCommunes": [
      "63178"
    ],
    "population": 56681,
    "centre": {
      "lat": 45.4648,
      "lon": 3.2205
    }
  },
  {
    "codeSiren": "200070712",
    "nom": "CC Thiers Dore et Montagne",
    "slug": "cc-thiers-dore-et-montagne-200070712",
    "codesDepartements": [
      "63"
    ],
    "codesCommunes": [
      "63430"
    ],
    "population": 36767,
    "centre": {
      "lat": 45.8532,
      "lon": 3.5832
    }
  },
  {
    "codeSiren": "248100737",
    "nom": "CA de l'Albigeois (C2A)",
    "slug": "ca-de-l-albigeois-c2a-248100737",
    "codesDepartements": [
      "81"
    ],
    "codesCommunes": [
      "81004",
      "81257"
    ],
    "population": 84183,
    "centre": {
      "lat": 43.9009,
      "lon": 2.1392
    }
  },
  {
    "codeSiren": "248100430",
    "nom": "CA de Castres Mazamet",
    "slug": "ca-de-castres-mazamet-248100430",
    "codesDepartements": [
      "81"
    ],
    "codesCommunes": [
      "81065",
      "81163",
      "81120"
    ],
    "population": 78974,
    "centre": {
      "lat": 43.5435,
      "lon": 2.3376
    }
  },
  {
    "codeSiren": "200066124",
    "nom": "CA Gaillac-Graulhet",
    "slug": "ca-gaillac-graulhet-200066124",
    "codesDepartements": [
      "81"
    ],
    "codesCommunes": [
      "81099",
      "81105"
    ],
    "population": 76216,
    "centre": {
      "lat": 43.905,
      "lon": 1.808
    }
  },
  {
    "codeSiren": "200034023",
    "nom": "CC Tarn-Agout",
    "slug": "cc-tarn-agout-200034023",
    "codesDepartements": [
      "31",
      "81"
    ],
    "codesCommunes": [
      "81140",
      "81271"
    ],
    "population": 29922,
    "centre": {
      "lat": 43.6843,
      "lon": 1.7772
    }
  },
  {
    "codeSiren": "200040905",
    "nom": "CC Carmausin-Ségala",
    "slug": "cc-carmausin-segala-200040905",
    "codesDepartements": [
      "81"
    ],
    "codesCommunes": [
      "81060"
    ],
    "population": 30115,
    "centre": {
      "lat": 44.0791,
      "lon": 2.1801
    }
  },
  {
    "codeSiren": "248200099",
    "nom": "CA Grand Montauban",
    "slug": "ca-grand-montauban-248200099",
    "codesDepartements": [
      "82"
    ],
    "codesCommunes": [
      "82121",
      "82124"
    ],
    "population": 81397,
    "centre": {
      "lat": 44.013,
      "lon": 1.3231
    }
  },
  {
    "codeSiren": "200066322",
    "nom": "CC Terres des Confluences",
    "slug": "cc-terres-des-confluences-200066322",
    "codesDepartements": [
      "82"
    ],
    "codesCommunes": [
      "82033",
      "82112"
    ],
    "population": 42367,
    "centre": {
      "lat": 44.0701,
      "lon": 1.1146
    }
  },
  {
    "codeSiren": "248200057",
    "nom": "CC du Quercy Caussadais",
    "slug": "cc-du-quercy-caussadais-248200057",
    "codesDepartements": [
      "82"
    ],
    "codesCommunes": [
      "82037"
    ],
    "population": 20434,
    "centre": {
      "lat": 44.1972,
      "lon": 1.5168
    }
  },
  {
    "codeSiren": "200066652",
    "nom": "CC Grand Sud Tarn-et-Garonne",
    "slug": "cc-grand-sud-tarn-et-garonne-200066652",
    "codesDepartements": [
      "82"
    ],
    "codesCommunes": [
      "82125",
      "82190",
      "82075"
    ],
    "population": 43301,
    "centre": {
      "lat": 43.889,
      "lon": 1.2875
    }
  },
  {
    "codeSiren": "200066884",
    "nom": "CC Quercy Vert-Aveyron",
    "slug": "cc-quercy-vert-aveyron-200066884",
    "codesDepartements": [
      "82"
    ],
    "codesCommunes": [
      "82134"
    ],
    "population": 21707,
    "centre": {
      "lat": 44.0211,
      "lon": 1.5551
    }
  },
  {
    "codeSiren": "248200016",
    "nom": "CC des Deux Rives",
    "slug": "cc-des-deux-rives-248200016",
    "codesDepartements": [
      "32",
      "47",
      "82"
    ],
    "codesCommunes": [
      "82186"
    ],
    "population": 19013,
    "centre": {
      "lat": 44.1139,
      "lon": 0.8952
    }
  }
]