[
  {
    "codeSiren": "200071082",
    "nom": "CA Montluçon Communauté",
    "slug": "ca-montlucon-communaute-200071082",
    "codesDepartements": [
      "03"
    ],
    "codesCommunes": [
      "03185",
      "03101",
      "03098",
      "03211",
      "03262",
      "03212",
      "03314",
      "03140",
      "03161",
      "03145",
      "03279"
    ],
    "population": 59380,
    "centre": {
      "lat": 46.2654,
      "lon": 2.5734
    }
  },
  {
    "codeSiren": "200071363",
    "nom": "CA Vichy Communauté",
    "slug": "ca-vichy-communaute-200071363",
    "codesDepartements": [
      "03"
    ],
    "codesCommunes": [
      "03310",
      "03095",
      "03023",
      "03236",
      "03094",
      "03001",
      "03264",
      "03304",
      "03306",
      "03258",
      "03044",
      "03165",
      "03093",
      "03126",
      "03157",
      "03110",
      "03060",
      "03174",
      "03271",
      "03045",
      "03029",
      "03080",
      "03252",
      "03163",
      "03006",
      "03113",
      "03273"
    ],
    "population": 84566,
    "centre": {
      "lat": 46.0908,
      "lon": 3.5453
    }
  },
  {
    "codeSiren": "200071140",
    "nom": "CA Moulins Communauté",
    "slug": "ca-moulins-communaute-200071140",
    "codesDepartements": [
      "03",
      "58"
    ],
    "codesCommunes": [
      "03190",
      "03321",
      "03013",
      "03155",
      "03275",
      "03290",
      "03156",
      "03200",
      "03197",
      "03025",
      "03286",
      "03040",
      "03283",
      "03316",
      "03026",
      "03120",
      "03085",
      "03180",
      "03074",
      "03229",
      "03121",
      "03073",
      "03184",
      "03309"
    ],
    "population": 64246,
    "centre": {
      "lat": 46.5938,
      "lon": 3.28
    }
  },
  {
    "codeSiren": "200071512",
    "nom": "CC Commentry Montmarault Néris Communauté",
    "slug": "cc-commentry-montmarault-neris-communaute-200071512",
    "codesDepartements": [
      "03"
    ],
    "codesCommunes": [
      "03082",
      "03195",
      "03084",
      "03186",
      "03106",
      "03315",
      "03104",
      "03052",
      "03027",
      "03159",
      "03217",
      "03189",
      "03305",
      "03319"
    ],
    "population": 25346,
    "centre": {
      "lat": 46.3576,
      "lon": 2.8817
    }
  },
  {
    "codeSiren": "200071389",
    "nom": "CC Saint-Pourçain Sioule Limagne",
    "slug": "cc-saint-pourcain-sioule-limagne-200071389",
    "codesDepartements": [
      "03"
    ],
    "codesCommunes": [
      "03118",
      "03254",
      "03107",
      "03043",
      "03053",
      "03022",
      "03030",
      "03109",
      "03220",
      "03018",
      "03267",
      "03112",
      "03204",
      "03242",
      "03083",
      "03176",
      "03038",
      "03133",
      "03237",
      "03049"
    ],
    "population": 33672,
    "centre": {
      "lat": 46.2515,
      "lon": 3.1678
    }
  },
  {
    "codeSiren": "200071470",
    "nom": "CC Entr'Allier Besbre et Loire",
    "slug": "cc-entr-allier-besbre-et-loire-200071470",
    "codesDepartements": [
      "03"
    ],
    "codesCommunes": [
      "03298",
      "03102",
      "03019",
      "03100",
      "03103",
      "03235",
      "03265",
      "03187",
      "03132",
      "03215",
      "03240",
      "03300",
      "03289",
      "03034",
      "03207",
      "03208",
      "03091"
    ],
    "population": 24322,
    "centre": {
      "lat": 46.424,
      "lon": 3.679
    }
  },
  {
    "codeSiren": "240300491",
    "nom": "CC du Pays de Lapalisse",
    "slug": "cc-du-pays-de-lapalisse-240300491",
    "codesDepartements": [
      "03"
    ],
    "codesCommunes": [
      "03138",
      "03257",
      "03131",
      "03042",
      "03230",
      "03205",
      "03223"
    ],
    "population": 8460,
    "centre": {
      "lat": 46.2373,
      "lon": 3.6621
    }
  },
  {
    "codeSiren": "240300657",
    "nom": "CC du Pays d'Huriel",
    "slug": "cc-du-pays-d-huriel-240300657",
    "codesDepartements": [
      "03"
    ],
    "codesCommunes": [
      "03128",
      "03055",
      "03246",
      "03072",
      "03288",
      "03225"
    ],
    "population": 7332,
    "centre": {
      "lat": 46.4213,
      "lon": 2.4271
    }
  },
  {
    "codeSiren": "200071496",
    "nom": "CC du Bocage Bourbonnais",
    "slug": "cc-du-bocage-bourbonnais-200071496",
    "codesDepartements": [
      "03"
    ],
    "codesCommunes": [
      "03036",
      "03247",
      "03046",
      "03292",
      "03320",
      "03092",
      "03202",
      "03065",
      "03238",
      "03183",
      "03117",
      "03251"
    ],
    "population": 13654,
    "centre": {
      "lat": 46.5146,
      "lon": 3.0483
    }
  },
  {
    "codeSiren": "240300566",
    "nom": "CC du Val de Cher",
    "slug": "cc-du-val-de-cher-240300566",
    "codesDepartements": [
      "03"
    ],
    "codesCommunes": [
      "03297",
      "03301",
      "03111",
      "03158"
    ],
    "population": 5461,
    "centre": {
      "lat": 46.4875,
      "lon": 2.6335
    }
  },
  {
    "codeSiren": "240300558",
    "nom": "CC du Pays de Tronçais",
    "slug": "cc-du-pays-de-troncais-240300558",
    "codesDepartements": [
      "03"
    ],
    "codesCommunes": [
      "03048",
      "03003",
      "03168",
      "03221",
      "03087",
      "03127"
    ],
    "population": 7431,
    "centre": {
      "lat": 46.621,
      "lon": 2.7711
    }
  },
  {
    "codeSiren": "200071884",
    "nom": "CC Le Grand Charolais",
    "slug": "cc-le-grand-charolais-200071884",
    "codesDepartements": [
      "03",
      "71"
    ],
    "codesCommunes": [
      "03173",
      "03063"
    ],
    "population": 39454,
    "centre": {
      "lat": 46.4746,
      "lon": 4.1693
    }
  },
  {
    "codeSiren": "200034700",
    "nom": "CA Durance-Lubéron-Verdon Agglomération",
    "slug": "ca-durance-luberon-verdon-agglomeration-200034700",
    "codesDepartements": [
      "04",
      "83"
    ],
    "codesCommunes": [
      "04112",
      "04143",
      "04242",
      "04152",
      "04197",
      "04245",
      "04230",
      "04094",
      "04166",
      "04063",
      "04034",
      "04172",
      "04157",
      "04189",
      "04004",
      "04124",
      "04081",
      "04158",
      "04035",
      "04041",
      "04156",
      "04128",
      "04077"
    ],
    "population": 63654,
    "centre": {
      "lat": 43.8428,
      "lon": 5.9219
    }
  },
  {
    "codeSiren": "200067437",
    "nom": "CA Provence-Alpes-Agglomération",
    "slug": "ca-provence-alpes-agglomeration-200067437",
    "codesDepartements": [
      "04"
    ],
    "codesCommunes": [
      "04070",
      "04049",
      "04116",
      "04149",
      "04108",
      "04244",
      "04079",
      "04001",
      "04205",
      "04036",
      "04110",
      "04047",
      "04217",
      "04046",
      "04135",
      "04121",
      "04031",
      "04122",
      "04084",
      "04113",
      "04203",
      "04126",
      "04097",
      "04109",
      "04167",
      "04182",
      "04155",
      "04184",
      "04021",
      "04237",
      "04024",
      "04028",
      "04020"
    ],
    "population": 48726,
    "centre": {
      "lat": 44.0818,
      "lon": 6.2056
    }
  },
  {
    "codeSiren": "200068765",
    "nom": "CC du Sisteronais-Buëch",
    "slug": "cc-du-sisteronais-buech-200068765",
    "codesDepartements": [
      "04",
      "05",
      "26"
    ],
    "codesCommunes": [
      "04209",
      "04123",
      "04134",
      "04075",
      "04222",
      "04233",
      "04216",
      "04231",
      "04023",
      "04057",
      "04026",
      "04118"
    ],
    "population": 25482,
    "centre": {
      "lat": 44.3256,
      "lon": 5.8478
    }
  },
  {
    "codeSiren": "240400440",
    "nom": "CC Pays Forcalquier et Montagne de Lure",
    "slug": "cc-pays-forcalquier-et-montagne-de-lure-240400440",
    "codesDepartements": [
      "04"
    ],
    "codesCommunes": [
      "04088",
      "04178",
      "04065",
      "04151",
      "04206",
      "04104",
      "04106",
      "04141",
      "04138",
      "04130",
      "04101",
      "04087"
    ],
    "population": 9996,
    "centre": {
      "lat": 44.0215,
      "lon": 5.796
    }
  },
  {
    "codeSiren": "200072304",
    "nom": "CC Vallée de l'Ubaye - Serre-Ponçon",
    "slug": "cc-vallee-de-l-ubaye-serre-poncon-200072304",
    "codesDepartements": [
      "04"
    ],
    "codesCommunes": [
      "04019",
      "04096",
      "04033",
      "04195",
      "04226",
      "04073",
      "04220",
      "04161",
      "04086",
      "04102",
      "04193",
      "04062"
    ],
    "population": 7620,
    "centre": {
      "lat": 44.4487,
      "lon": 6.5997
    }
  },
  {
    "codeSiren": "200071025",
    "nom": "CC Haute-Provence - Pays de Banon",
    "slug": "cc-haute-provence-pays-de-banon-200071025",
    "codesDepartements": [
      "04"
    ],
    "codesCommunes": [
      "04160",
      "04111",
      "04192",
      "04018",
      "04188",
      "04068",
      "04208",
      "04163",
      "04227",
      "04162",
      "04241",
      "04132",
      "04201",
      "04190"
    ],
    "population": 10059,
    "centre": {
      "lat": 43.9897,
      "lon": 5.6569
    }
  },
  {
    "codeSiren": "200071033",
    "nom": "CC Jabron-Lure-Vançon-Durance",
    "slug": "cc-jabron-lure-vancon-durance-200071033",
    "codesDepartements": [
      "04",
      "26"
    ],
    "codesCommunes": [
      "04145",
      "04200",
      "04013",
      "04053",
      "04139",
      "04127",
      "04027",
      "04229",
      "04211",
      "04199",
      "04140"
    ],
    "population": 5393,
    "centre": {
      "lat": 44.1238,
      "lon": 5.8174
    }
  },
  {
    "codeSiren": "200068625",
    "nom": "CC Alpes-Provence-Verdon \"Sources de lumière\"",
    "slug": "cc-alpes-provence-verdon-sources-de-lumiere-200068625",
    "codesDepartements": [
      "04"
    ],
    "codesCommunes": [
      "04039",
      "04173",
      "04008",
      "04006",
      "04076",
      "04061",
      "04022",
      "04025",
      "04144",
      "04136",
      "04240",
      "04148",
      "04219",
      "04133",
      "04059",
      "04218",
      "04090",
      "04183",
      "04055",
      "04174",
      "04204",
      "04042",
      "04032",
      "04202",
      "04214",
      "04005",
      "04115",
      "04092"
    ],
    "population": 11417,
    "centre": {
      "lat": 44.0289,
      "lon": 6.5947
    }
  },
  {
    "codeSiren": "200040624",
    "nom": "CC Pays d'Apt-Luberon",
    "slug": "cc-pays-d-apt-luberon-200040624",
    "codesDepartements": [
      "04",
      "84"
    ],
    "codesCommunes": [
      "04045"
    ],
    "population": 28347,
    "centre": {
      "lat": 43.9031,
      "lon": 5.4046
    }
  },
  {
    "codeSiren": "200067825",
    "nom": "CA Gap-Tallard-Durance",
    "slug": "ca-gap-tallard-durance-200067825",
    "codesDepartements": [
      "04",
      "05"
    ],
    "codesCommunes": [
      "04066",
      "04058"
    ],
    "population": 50743,
    "centre": {
      "lat": 44.5033,
      "lon": 5.9958
    }
  },
  {
    "codeSiren": "200067320",
    "nom": "CC Serre-Ponçon Val d'Avance",
    "slug": "cc-serre-poncon-val-d-avance-200067320",
    "codesDepartements": [
      "04",
      "05"
    ],
    "codesCommunes": [
      "04234",
      "04150"
    ],
    "population": 7859,
    "centre": {
      "lat": 44.4981,
      "lon": 6.1808
    }
  },
  {
    "codeSiren": "200040392",
    "nom": "CA Le Grand Périgueux",
    "slug": "ca-le-grand-perigueux-200040392",
    "codesDepartements": [
      "24"
    ],
    "codesCommunes": [
      "24322",
      "24053",
      "24138",
      "24557",
      "24312",
      "24102",
      "24026",
      "24256",
      "24098",
      "24139",
      "24350",
      "24115",
      "24571",
      "24002",
      "24540",
      "24362",
      "24266",
      "24010",
      "24011",
      "24156",
      "24521",
      "24108",
      "24527",
      "24484",
      "24220",
      "24135"
    ],
    "population": 104933,
    "centre": {
      "lat": 45.102,
      "lon": 0.7416
    }
  },
  {
    "codeSiren": "200070647",
    "nom": "CA Bergeracoise",
    "slug": "ca-bergeracoise-200070647",
    "codesDepartements": [
      "24"
    ],
    "codesCommunes": [
      "24037",
      "24340",
      "24225",
      "24222",
      "24487",
      "24145",
      "24194",
      "24140",
      "24182",
      "24534",
      "24237",
      "24296",
      "24437",
      "24472",
      "24419",
      "24499",
      "24274",
      "24197",
      "24331",
      "24224"
    ],
    "population": 61551,
    "centre": {
      "lat": 44.8627,
      "lon": 0.4289
    }
  },
  {
    "codeSiren": "200027217",
    "nom": "CC Sarlat-Périgord Noir",
    "slug": "cc-sarlat-perigord-noir-200027217",
    "codesDepartements": [
      "24"
    ],
    "codesCommunes": [
      "24520",
      "24341",
      "24366",
      "24587",
      "24252"
    ],
    "population": 16168,
    "centre": {
      "lat": 44.9028,
      "lon": 1.197
    }
  },
  {
    "codeSiren": "200041150",
    "nom": "CC Terrassonnais Haut Périgord Noir",
    "slug": "cc-terrassonnais-haut-perigord-noir-200041150",
    "codesDepartements": [
      "24"
    ],
    "codesCommunes": [
      "24547",
      "24229",
      "24550",
      "24020",
      "24130",
      "24179",
      "24321",
      "24210",
      "24030"
    ],
    "population": 22161,
    "centre": {
      "lat": 45.1709,
      "lon": 1.172
    }
  },
  {
    "codeSiren": "200040384",
    "nom": "CC Isle Double Landais",
    "slug": "cc-isle-double-landais-200040384",
    "codesDepartements": [
      "24"
    ],
    "codesCommunes": [
      "24294",
      "24264",
      "24329",
      "24297",
      "24449"
    ],
    "population": 12546,
    "centre": {
      "lat": 45.066,
      "lon": 0.1554
    }
  },
  {
    "codeSiren": "200040095",
    "nom": "CC Isle Vern Salembre en Périgord",
    "slug": "cc-isle-vern-salembre-en-perigord-200040095",
    "codesDepartements": [
      "24"
    ],
    "codesCommunes": [
      "24372",
      "24309",
      "24442",
      "24295",
      "24543",
      "24236",
      "24418",
      "24157",
      "24205"
    ],
    "population": 18912,
    "centre": {
      "lat": 45.1197,
      "lon": 0.4709
    }
  },
  {
    "codeSiren": "200041572",
    "nom": "CC Dronne et Belle",
    "slug": "cc-dronne-et-belle-200041572",
    "codesDepartements": [
      "24"
    ],
    "codesCommunes": [
      "24064",
      "24253",
      "24055",
      "24096",
      "24042"
    ],
    "population": 11393,
    "centre": {
      "lat": 45.3905,
      "lon": 0.5751
    }
  },
  {
    "codeSiren": "200040400",
    "nom": "CC du Périgord Ribéracois",
    "slug": "cc-du-perigord-riberacois-200040400",
    "codesDepartements": [
      "24"
    ],
    "codesCommunes": [
      "24352",
      "24553",
      "24243",
      "24586",
      "24455",
      "24564"
    ],
    "population": 19449,
    "centre": {
      "lat": 45.2871,
      "lon": 0.3955
    }
  },
  {
    "codeSiren": "242400935",
    "nom": "CC du Pays de Saint Aulaye",
    "slug": "cc-du-pays-de-saint-aulaye-242400935",
    "codesDepartements": [
      "24"
    ],
    "codesCommunes": [
      "24354",
      "24376",
      "24490",
      "24316"
    ],
    "population": 6688,
    "centre": {
      "lat": 45.1694,
      "lon": 0.1126
    }
  },
  {
    "codeSiren": "200071819",
    "nom": "CC du Périgord Nontronnais",
    "slug": "cc-du-perigord-nontronnais-200071819",
    "codesDepartements": [
      "24"
    ],
    "codesCommunes": [
      "24311",
      "24328",
      "24479",
      "24214",
      "24016",
      "24498",
      "24451"
    ],
    "population": 15184,
    "centre": {
      "lat": 45.5777,
      "lon": 0.6783
    }
  },
  {
    "codeSiren": "200034833",
    "nom": "CC des Bastides Dordogne-Périgord",
    "slug": "cc-des-bastides-dordogne-perigord-200034833",
    "codesDepartements": [
      "24"
    ],
    "codesCommunes": [
      "24223",
      "24068",
      "24028",
      "24260",
      "24143"
    ],
    "population": 18601,
    "centre": {
      "lat": 44.7766,
      "lon": 0.8009
    }
  },
  {
    "codeSiren": "242400752",
    "nom": "CC Périgord-Limousin",
    "slug": "cc-perigord-limousin-242400752",
    "codesDepartements": [
      "24"
    ],
    "codesCommunes": [
      "24551",
      "24133",
      "24218",
      "24304",
      "24134",
      "24308"
    ],
    "population": 14078,
    "centre": {
      "lat": 45.4571,
      "lon": 0.9635
    }
  },
  {
    "codeSiren": "200069094",
    "nom": "CC Isle et Crempse en Périgord",
    "slug": "cc-isle-et-crempse-en-perigord-200069094",
    "codesDepartements": [
      "24"
    ],
    "codesCommunes": [
      "24299",
      "24259",
      "24462",
      "24409",
      "24436",
      "24581"
    ],
    "population": 14475,
    "centre": {
      "lat": 45.0151,
      "lon": 0.4311
    }
  },
  {
    "codeSiren": "200041168",
    "nom": "CC de la Vallée de l'Homme",
    "slug": "cc-de-la-vallee-de-l-homme-200041168",
    "codesDepartements": [
      "24"
    ],
    "codesCommunes": [
      "24291",
      "24067",
      "24356",
      "24172",
      "24330"
    ],
    "population": 15989,
    "centre": {
      "lat": 44.9961,
      "lon": 1.0613
    }
  },
  {
    "codeSiren": "200040889",
    "nom": "CC de Portes Sud Périgord",
    "slug": "cc-de-portes-sud-perigord-200040889",
    "codesDepartements": [
      "24"
    ],
    "codesCommunes": [
      "24167",
      "24212",
      "24177"
    ],
    "population": 8450,
    "centre": {
      "lat": 44.7334,
      "lon": 0.5305
    }
  },
  {
    "codeSiren": "243301371",
    "nom": "CC du Pays Foyen",
    "slug": "cc-du-pays-foyen-243301371",
    "codesDepartements": [
      "24",
      "33"
    ],
    "codesCommunes": [
      "24335"
    ],
    "population": 16540,
    "centre": {
      "lat": 44.8064,
      "lon": 0.1666
    }
  },
  {
    "codeSiren": "200034197",
    "nom": "CC de Montaigne Montravel et Gurson",
    "slug": "cc-de-montaigne-montravel-et-gurson-200034197",
    "codesDepartements": [
      "24"
    ],
    "codesCommunes": [
      "24370",
      "24226",
      "24289",
      "24568",
      "24584",
      "24461"
    ],
    "population": 11859,
    "centre": {
      "lat": 44.9075,
      "lon": 0.129
    }
  },
  {
    "codeSiren": "200040830",
    "nom": "CC du Pays de Fénelon",
    "slug": "cc-du-pays-de-fenelon-200040830",
    "codesDepartements": [
      "24"
    ],
    "codesCommunes": [
      "24082",
      "24516",
      "24412",
      "24325",
      "24081"
    ],
    "population": 9728,
    "centre": {
      "lat": 44.9355,
      "lon": 1.3251
    }
  },
  {
    "codeSiren": "200041051",
    "nom": "CC Vallée de la Dordogne et Forêt Bessède",
    "slug": "cc-vallee-de-la-dordogne-et-foret-bessede-200041051",
    "codesDepartements": [
      "24"
    ],
    "codesCommunes": [
      "24396",
      "24035",
      "24142",
      "24538",
      "24087",
      "24268"
    ],
    "population": 8965,
    "centre": {
      "lat": 44.8075,
      "lon": 1.0223
    }
  },
  {
    "codeSiren": "242401024",
    "nom": "CC Isle-Loue-Auvézère en Périgord",
    "slug": "cc-isle-loue-auvezere-en-perigord-242401024",
    "codesDepartements": [
      "24"
    ],
    "codesCommunes": [
      "24164",
      "24147",
      "24320",
      "24227",
      "24137",
      "24526",
      "24515"
    ],
    "population": 13805,
    "centre": {
      "lat": 45.3363,
      "lon": 1.101
    }
  },
  {
    "codeSiren": "200041440",
    "nom": "CC de Domme- Villefranche du Périgord",
    "slug": "cc-de-domme-villefranche-du-perigord-200041440",
    "codesDepartements": [
      "24"
    ],
    "codesCommunes": [
      "24091",
      "24152",
      "24207",
      "24585"
    ],
    "population": 8552,
    "centre": {
      "lat": 44.7069,
      "lon": 1.1322
    }
  },
  {
    "codeSiren": "200066926",
    "nom": "CA Grand Auch Coeur de Gascogne",
    "slug": "ca-grand-auch-coeur-de-gascogne-200066926",
    "codesDepartements": [
      "32"
    ],
    "codesCommunes": [
      "32013",
      "32307",
      "32331",
      "32162",
      "32083",
      "32117",
      "32301",
      "32282",
      "32279",
      "32312",
      "32076",
      "32348",
      "32368",
      "32019",
      "32335",
      "32298",
      "32054",
      "32204",
      "32207",
      "32091",
      "32382",
      "32347",
      "32384",
      "32112"
    ],
    "population": 39498,
    "centre": {
      "lat": 43.6966,
      "lon": 0.5752
    }
  },
  {
    "codeSiren": "200023620",
    "nom": "CC de la Gascogne Toulousaine",
    "slug": "cc-de-la-gascogne-toulousaine-200023620",
    "codesDepartements": [
      "32"
    ],
    "codesCommunes": [
      "32160",
      "32334",
      "32425",
      "32210",
      "32268",
      "32016",
      "32121",
      "32105",
      "32134",
      "32090",
      "32234",
      "32339"
    ],
    "population": 17060,
    "centre": {
      "lat": 43.5916,
      "lon": 1.0667
    }
  },
  {
    "codeSiren": "243200417",
    "nom": "CC de la Tenarèze",
    "slug": "cc-de-la-tenareze-243200417",
    "codesDepartements": [
      "32"
    ],
    "codesCommunes": [
      "32107",
      "32290",
      "32459",
      "32095",
      "32404",
      "32180",
      "32292",
      "32044",
      "32133"
    ],
    "population": 14327,
    "centre": {
      "lat": 43.934,
      "lon": 0.3257
    }
  },
  {
    "codeSiren": "243200391",
    "nom": "CC de la Lomagne Gersoise",
    "slug": "cc-de-la-lomagne-gersoise-243200391",
    "codesDepartements": [
      "32"
    ],
    "codesCommunes": [
      "32132",
      "32208",
      "32286",
      "32306",
      "32345",
      "32253",
      "32239",
      "32417",
      "32442",
      "32311",
      "32082",
      "32429",
      "32146",
      "32457"
    ],
    "population": 19309,
    "centre": {
      "lat": 43.9168,
      "lon": 0.6378
    }
  },
  {
    "codeSiren": "243200458",
    "nom": "CC du Grand Armagnac",
    "slug": "cc-du-grand-armagnac-243200458",
    "codesDepartements": [
      "32"
    ],
    "codesCommunes": [
      "32119",
      "32096",
      "32079",
      "32149",
      "32127",
      "32190",
      "32305",
      "32064",
      "32110",
      "32115",
      "32340",
      "32243"
    ],
    "population": 13441,
    "centre": {
      "lat": 43.8664,
      "lon": 0.0358
    }
  },
  {
    "codeSiren": "243200607",
    "nom": "CC Artagnan de Fezensac",
    "slug": "cc-artagnan-de-fezensac-243200607",
    "codesDepartements": [
      "32"
    ],
    "codesCommunes": [
      "32462",
      "32231",
      "32088",
      "32219"
    ],
    "population": 6953,
    "centre": {
      "lat": 43.7218,
      "lon": 0.2691
    }
  },
  {
    "codeSiren": "243200425",
    "nom": "CC Coeur d'Astarac en Gascogne",
    "slug": "cc-coeur-d-astarac-en-gascogne-243200425",
    "codesDepartements": [
      "32"
    ],
    "codesCommunes": [
      "32256",
      "32252",
      "32285",
      "32159",
      "32032",
      "32167"
    ],
    "population": 7720,
    "centre": {
      "lat": 43.5159,
      "lon": 0.304
    }
  },
  {
    "codeSiren": "200042372",
    "nom": "CC des Coteaux Arrats Gimone",
    "slug": "cc-des-coteaux-arrats-gimone-200042372",
    "codesDepartements": [
      "32"
    ],
    "codesCommunes": [
      "32147",
      "32012",
      "32412",
      "32433",
      "32123",
      "32237",
      "32388",
      "32406",
      "32247"
    ],
    "population": 10784,
    "centre": {
      "lat": 43.5507,
      "lon": 0.8091
    }
  },
  {
    "codeSiren": "243200599",
    "nom": "CC du Saves",
    "slug": "cc-du-saves-243200599",
    "codesDepartements": [
      "32"
    ],
    "codesCommunes": [
      "32410",
      "32213",
      "32261",
      "32297",
      "32098",
      "32418",
      "32321"
    ],
    "population": 9849,
    "centre": {
      "lat": 43.4673,
      "lon": 0.9154
    }
  },
  {
    "codeSiren": "200034726",
    "nom": "CC Bastides de Lomagne",
    "slug": "cc-bastides-de-lomagne-200034726",
    "codesDepartements": [
      "32"
    ],
    "codesCommunes": [
      "32249",
      "32370",
      "32106",
      "32269",
      "32436",
      "32448",
      "32120",
      "32262",
      "32416",
      "32372",
      "32452",
      "32444"
    ],
    "population": 11318,
    "centre": {
      "lat": 43.7974,
      "lon": 0.8904
    }
  },
  {
    "codeSiren": "243200409",
    "nom": "CC du Bas Armagnac",
    "slug": "cc-du-bas-armagnac-243200409",
    "codesDepartements": [
      "32"
    ],
    "codesCommunes": [
      "32296",
      "32155",
      "32227",
      "32094",
      "32369",
      "32005",
      "32202",
      "32449",
      "32271"
    ],
    "population": 8714,
    "centre": {
      "lat": 43.7827,
      "lon": -0.048
    }
  },
  {
    "codeSiren": "200035632",
    "nom": "CC Armagnac Adour",
    "slug": "cc-armagnac-adour-200035632",
    "codesDepartements": [
      "32"
    ],
    "codesCommunes": [
      "32344",
      "32001",
      "32463",
      "32378",
      "32398",
      "32209"
    ],
    "population": 6568,
    "centre": {
      "lat": 43.6818,
      "lon": -0.0228
    }
  },
  {
    "codeSiren": "200072320",
    "nom": "CC Val de Gers",
    "slug": "cc-val-de-gers-200072320",
    "codesDepartements": [
      "32"
    ],
    "codesCommunes": [
      "32242",
      "32426",
      "32029",
      "32365",
      "32381",
      "32200",
      "32201",
      "32122",
      "32304",
      "32300"
    ],
    "population": 9783,
    "centre": {
      "lat": 43.4942,
      "lon": 0.5551
    }
  },
  {
    "codeSiren": "243200508",
    "nom": "CC Bastides et Vallons du Gers",
    "slug": "cc-bastides-et-vallons-du-gers-243200508",
    "codesDepartements": [
      "32"
    ],
    "codesCommunes": [
      "32319",
      "32233",
      "32036",
      "32163",
      "32446"
    ],
    "population": 6969,
    "centre": {
      "lat": 43.5465,
      "lon": 0.1294
    }
  },
  {
    "codeSiren": "200030435",
    "nom": "CC d'Aire-sur-l'Adour",
    "slug": "cc-d-aire-sur-l-adour-200030435",
    "codesDepartements": [
      "32",
      "40"
    ],
    "codesCommunes": [
      "32027",
      "32460"
    ],
    "population": 12922,
    "centre": {
      "lat": 43.6732,
      "lon": -0.3192
    }
  },
  {
    "codeSiren": "200035756",
    "nom": "CC Astarac Arros en Gascogne",
    "slug": "cc-astarac-arros-en-gascogne-200035756",
    "codesDepartements": [
      "32"
    ],
    "codesCommunes": [
      "32464",
      "32389",
      "32045",
      "32152",
      "32254",
      "32394",
      "32172",
      "32283",
      "32020"
    ],
    "population": 7171,
    "centre": {
      "lat": 43.4513,
      "lon": 0.3517
    }
  },
  {
    "codeSiren": "243600327",
    "nom": "CA Châteauroux Métropole",
    "slug": "ca-chateauroux-metropole-243600327",
    "codesDepartements": [
      "36"
    ],
    "codesCommunes": [
      "36044",
      "36063",
      "36159",
      "36005",
      "36202",
      "36128",
      "36101",
      "36009",
      "36071",
      "36057",
      "36064",
      "36112",
      "36211",
      "36089"
    ],
    "population": 72566,
    "centre": {
      "lat": 46.7836,
      "lon": 1.7242
    }
  },
  {
    "codeSiren": "243600236",
    "nom": "CC du Pays d'Issoudun",
    "slug": "cc-du-pays-d-issoudun-243600236",
    "codesDepartements": [
      "18",
      "36"
    ],
    "codesCommunes": [
      "36088",
      "36171",
      "36199",
      "36021",
      "36195",
      "36215",
      "36152"
    ],
    "population": 18778,
    "centre": {
      "lat": 46.9525,
      "lon": 2.0235
    }
  },
  {
    "codeSiren": "243600319",
    "nom": "CC Brenne - Val de Creuse",
    "slug": "cc-brenne-val-de-creuse-243600319",
    "codesDepartements": [
      "36"
    ],
    "codesCommunes": [
      "36018",
      "36224",
      "36165",
      "36220",
      "36058",
      "36176",
      "36119",
      "36173",
      "36053",
      "36172",
      "36066",
      "36239",
      "36157",
      "36148",
      "36137",
      "36177",
      "36087",
      "36144"
    ],
    "population": 17565,
    "centre": {
      "lat": 46.6143,
      "lon": 1.2144
    }
  },
  {
    "codeSiren": "200068872",
    "nom": "CC Éguzon - Argenton - Vallée de la Creuse",
    "slug": "cc-eguzon-argenton-vallee-de-la-creuse-200068872",
    "codesDepartements": [
      "36"
    ],
    "codesCommunes": [
      "36006",
      "36154",
      "36192",
      "36200",
      "36070",
      "36231",
      "36161",
      "36158",
      "36042",
      "36032",
      "36219",
      "36062",
      "36131",
      "36117",
      "36033",
      "36022",
      "36012"
    ],
    "population": 19302,
    "centre": {
      "lat": 46.573,
      "lon": 1.5642
    }
  },
  {
    "codeSiren": "243600301",
    "nom": "CC Val de l'Indre - Brenne",
    "slug": "cc-val-de-l-indre-brenne-243600301",
    "codesDepartements": [
      "36"
    ],
    "codesCommunes": [
      "36031",
      "36241",
      "36142",
      "36232",
      "36194",
      "36139",
      "36007",
      "36050",
      "36198",
      "36118"
    ],
    "population": 13242,
    "centre": {
      "lat": 46.8486,
      "lon": 1.4432
    }
  },
  {
    "codeSiren": "243600350",
    "nom": "CC de la Châtre et Sainte-Sévère",
    "slug": "cc-de-la-chatre-et-sainte-severe-243600350",
    "codesDepartements": [
      "36"
    ],
    "codesCommunes": [
      "36046",
      "36127",
      "36109",
      "36180",
      "36208",
      "36091",
      "36163",
      "36025",
      "36043",
      "36184",
      "36143",
      "36156",
      "36221",
      "36017",
      "36234",
      "36236",
      "36210",
      "36240",
      "36214"
    ],
    "population": 16134,
    "centre": {
      "lat": 46.5871,
      "lon": 2.0413
    }
  },
  {
    "codeSiren": "243600293",
    "nom": "CC Levroux Boischaut Champagne",
    "slug": "cc-levroux-boischaut-champagne-243600293",
    "codesDepartements": [
      "36"
    ],
    "codesCommunes": [
      "36093",
      "36247",
      "36026",
      "36013",
      "36175"
    ],
    "population": 6162,
    "centre": {
      "lat": 46.9879,
      "lon": 1.6276
    }
  },
  {
    "codeSiren": "243600202",
    "nom": "CC Chabris - Pays de Bazelle",
    "slug": "cc-chabris-pays-de-bazelle-243600202",
    "codesDepartements": [
      "36"
    ],
    "codesCommunes": [
      "36034",
      "36229",
      "36162",
      "36068",
      "36185",
      "36004"
    ],
    "population": 6185,
    "centre": {
      "lat": 47.187,
      "lon": 1.6952
    }
  },
  {
    "codeSiren": "200035848",
    "nom": "CC du Châtillonnais en Berry",
    "slug": "cc-du-chatillonnais-en-berry-200035848",
    "codesDepartements": [
      "36"
    ],
    "codesCommunes": [
      "36045",
      "36055",
      "36149",
      "36074"
    ],
    "population": 5638,
    "centre": {
      "lat": 46.9598,
      "lon": 1.206
    }
  },
  {
    "codeSiren": "200040558",
    "nom": "CC Écueillé-Valençay",
    "slug": "cc-ecueille-valencay-200040558",
    "codesDepartements": [
      "36"
    ],
    "codesCommunes": [
      "36228",
      "36103",
      "36069",
      "36244",
      "36233",
      "36155",
      "36107",
      "36237",
      "36086",
      "36235",
      "36243"
    ],
    "population": 10933,
    "centre": {
      "lat": 47.0983,
      "lon": 1.4388
    }
  },
  {
    "codeSiren": "200068880",
    "nom": "CC Champagne Boischauts",
    "slug": "cc-champagne-boischauts-200068880",
    "codesDepartements": [
      "36"
    ],
    "codesCommunes": [
      "36230",
      "36140",
      "36003",
      "36191",
      "36169",
      "36097",
      "36019",
      "36037"
    ],
    "population": 9691,
    "centre": {
      "lat": 46.9417,
      "lon": 1.8842
    }
  },
  {
    "codeSiren": "200018521",
    "nom": "CC du Val de Bouzanne",
    "slug": "cc-du-val-de-bouzanne-200018521",
    "codesDepartements": [
      "36"
    ],
    "codesCommunes": [
      "36141",
      "36056",
      "36120",
      "36129",
      "36078",
      "36226",
      "36084"
    ],
    "population": 5969,
    "centre": {
      "lat": 46.6025,
      "lon": 1.7797
    }
  },
  {
    "codeSiren": "200007052",
    "nom": "CC de la Marche Berrichonne",
    "slug": "cc-de-la-marche-berrichonne-200007052",
    "codesDepartements": [
      "36"
    ],
    "codesCommunes": [
      "36001",
      "36189",
      "36060",
      "36146",
      "36207",
      "36126",
      "36061",
      "36099"
    ],
    "population": 5504,
    "centre": {
      "lat": 46.471,
      "lon": 1.7967
    }
  },
  {
    "codeSiren": "200035137",
    "nom": "CC Marche Occitane - Val d'Anglin",
    "slug": "cc-marche-occitane-val-d-anglin-200035137",
    "codesDepartements": [
      "36"
    ],
    "codesCommunes": [
      "36035",
      "36016",
      "36168",
      "36182",
      "36047",
      "36150",
      "36094",
      "36134",
      "36174",
      "36197",
      "36114"
    ],
    "population": 6517,
    "centre": {
      "lat": 46.4772,
      "lon": 1.2715
    }
  },
  {
    "codeSiren": "243600343",
    "nom": "CC Coeur de Brenne",
    "slug": "cc-coeur-de-brenne-243600343",
    "codesDepartements": [
      "36"
    ],
    "codesCommunes": [
      "36113",
      "36123",
      "36010",
      "36153",
      "36204"
    ],
    "population": 4659,
    "centre": {
      "lat": 46.8029,
      "lon": 1.1822
    }
  },
  {
    "codeSiren": "200096956",
    "nom": "CA Agglomération d'Agen",
    "slug": "ca-agglomeration-d-agen-200096956",
    "codesDepartements": [
      "47"
    ],
    "codesCommunes": [
      "47001",
      "47201",
      "47032",
      "47031",
      "47100",
      "47209",
      "47145",
      "47069",
      "47091",
      "47051",
      "47040",
      "47225",
      "47015",
      "47238",
      "47246",
      "47137",
      "47169",
      "47300",
      "47016",
      "47060",
      "47128",
      "47019",
      "47217",
      "47269",
      "47234",
      "47248",
      "47025",
      "47288",
      "47289"
    ],
    "population": 101727,
    "centre": {
      "lat": 44.168,
      "lon": 0.7114
    }
  },
  {
    "codeSiren": "200023307",
    "nom": "CA du Grand Villeneuvois",
    "slug": "ca-du-grand-villeneuvois-200023307",
    "codesDepartements": [
      "47"
    ],
    "codesCommunes": [
      "47323",
      "47252",
      "47215",
      "47027",
      "47049",
      "47138",
      "47146",
      "47075",
      "47117",
      "47239",
      "47228",
      "47081",
      "47099",
      "47006",
      "47237"
    ],
    "population": 47899,
    "centre": {
      "lat": 44.3548,
      "lon": 0.6674
    }
  },
  {
    "codeSiren": "200030674",
    "nom": "CA Val de Garonne Agglomération",
    "slug": "ca-val-de-garonne-agglomeration-200030674",
    "codesDepartements": [
      "47"
    ],
    "codesCommunes": [
      "47157",
      "47310",
      "47233",
      "47065",
      "47326",
      "47024",
      "47110",
      "47159",
      "47165",
      "47101",
      "47068",
      "47301",
      "47056",
      "47156",
      "47095",
      "47285",
      "47127",
      "47061",
      "47094",
      "47028",
      "47191",
      "47216",
      "47088",
      "47131",
      "47316",
      "47263",
      "47257",
      "47163",
      "47046",
      "47232",
      "47325",
      "47112"
    ],
    "population": 60690,
    "centre": {
      "lat": 44.4714,
      "lon": 0.2223
    }
  },
  {
    "codeSiren": "200068948",
    "nom": "CC Albret Communauté",
    "slug": "cc-albret-communaute-200068948",
    "codesDepartements": [
      "47"
    ],
    "codesCommunes": [
      "47195",
      "47143",
      "47021",
      "47167",
      "47043",
      "47097",
      "47318",
      "47102",
      "47174",
      "47186",
      "47041",
      "47302",
      "47180",
      "47221",
      "47172",
      "47133",
      "47045"
    ],
    "population": 25866,
    "centre": {
      "lat": 44.1274,
      "lon": 0.323
    }
  },
  {
    "codeSiren": "244701355",
    "nom": "CC des Coteaux et Landes de Gascogne",
    "slug": "cc-des-coteaux-et-landes-de-gascogne-244701355",
    "codesDepartements": [
      "47"
    ],
    "codesCommunes": [
      "47052",
      "47253",
      "47034",
      "47119",
      "47222"
    ],
    "population": 12590,
    "centre": {
      "lat": 44.2833,
      "lon": 0.0531
    }
  },
  {
    "codeSiren": "200068930",
    "nom": "CC Fumel Vallée du Lot",
    "slug": "cc-fumel-vallee-du-lot-200068930",
    "codesDepartements": [
      "47"
    ],
    "codesCommunes": [
      "47106",
      "47185",
      "47203",
      "47280",
      "47179",
      "47283",
      "47077",
      "47315",
      "47070",
      "47312",
      "47292",
      "47079",
      "47029",
      "47242",
      "47328"
    ],
    "population": 24601,
    "centre": {
      "lat": 44.4659,
      "lon": 0.9255
    }
  },
  {
    "codeSiren": "200068922",
    "nom": "CC du Confluent et des Coteaux de Prayssas",
    "slug": "cc-du-confluent-et-des-coteaux-de-prayssas-200068922",
    "codesDepartements": [
      "47"
    ],
    "codesCommunes": [
      "47004",
      "47210",
      "47078",
      "47213",
      "47066",
      "47214",
      "47140",
      "47155",
      "47038",
      "47111",
      "47190",
      "47022"
    ],
    "population": 17768,
    "centre": {
      "lat": 44.2971,
      "lon": 0.4344
    }
  },
  {
    "codeSiren": "244700464",
    "nom": "CC du Pays de Lauzun",
    "slug": "cc-du-pays-de-lauzun-244700464",
    "codesDepartements": [
      "47"
    ],
    "codesCommunes": [
      "47168",
      "47264",
      "47142",
      "47290",
      "47144",
      "47226",
      "47005",
      "47003",
      "47235"
    ],
    "population": 10362,
    "centre": {
      "lat": 44.5969,
      "lon": 0.4035
    }
  },
  {
    "codeSiren": "200036523",
    "nom": "CC des Bastides en Haut Agenais Périgord",
    "slug": "cc-des-bastides-en-haut-agenais-perigord-200036523",
    "codesDepartements": [
      "47"
    ],
    "codesCommunes": [
      "47175",
      "47048",
      "47057",
      "47324",
      "47241",
      "47291",
      "47170",
      "47055"
    ],
    "population": 17015,
    "centre": {
      "lat": 44.5775,
      "lon": 0.7006
    }
  },
  {
    "codeSiren": "244701405",
    "nom": "CC Lot et Tolzac",
    "slug": "cc-lot-et-tolzac-244701405",
    "codesDepartements": [
      "47"
    ],
    "codesCommunes": [
      "47054",
      "47306",
      "47173",
      "47206",
      "47317"
    ],
    "population": 7426,
    "centre": {
      "lat": 44.4589,
      "lon": 0.4806
    }
  },
  {
    "codeSiren": "244700449",
    "nom": "CC du Pays de Duras",
    "slug": "cc-du-pays-de-duras-244700449",
    "codesDepartements": [
      "47"
    ],
    "codesCommunes": [
      "47086",
      "47147",
      "47278"
    ],
    "population": 5730,
    "centre": {
      "lat": 44.6768,
      "lon": 0.2299
    }
  },
  {
    "codeSiren": "245400676",
    "nom": "Métropole du Grand Nancy",
    "slug": "metropole-du-grand-nancy-245400676",
    "codesDepartements": [
      "54"
    ],
    "codesCommunes": [
      "54395",
      "54547",
      "54304",
      "54578",
      "54357",
      "54482",
      "54274",
      "54526",
      "54184",
      "54339",
      "54300",
      "54328",
      "54257",
      "54498",
      "54439",
      "54495",
      "54197",
      "54265",
      "54025"
    ],
    "population": 258208,
    "centre": {
      "lat": 48.6731,
      "lon": 6.1837
    }
  },
  {
    "codeSiren": "200070324",
    "nom": "CC du Territoire de Lunéville à Baccarat",
    "slug": "cc-du-territoire-de-luneville-a-baccarat-200070324",
    "codesDepartements": [
      "54"
    ],
    "codesCommunes": [
      "54329",
      "54039",
      "54116",
      "54065",
      "54449",
      "54260",
      "54281",
      "54472",
      "54038"
    ],
    "population": 40609,
    "centre": {
      "lat": 48.5179,
      "lon": 6.6309
    }
  },
  {
    "codeSiren": "200070563",
    "nom": "CC Terres Touloises",
    "slug": "cc-terres-touloises-200070563",
    "codesDepartements": [
      "54"
    ],
    "codesCommunes": [
      "54528",
      "54174",
      "54232",
      "54205",
      "54557",
      "54167",
      "54162",
      "54584",
      "54073",
      "54122"
    ],
    "population": 44293,
    "centre": {
      "lat": 48.7325,
      "lon": 5.9001
    }
  },
  {
    "codeSiren": "245400262",
    "nom": "CA Grand Longwy Agglomération",
    "slug": "ca-grand-longwy-agglomeration-245400262",
    "codesDepartements": [
      "54"
    ],
    "codesCommunes": [
      "54323",
      "54382",
      "54261",
      "54270",
      "54314",
      "54451",
      "54254",
      "54234",
      "54138",
      "54321",
      "54367",
      "54493",
      "54575",
      "54385",
      "54151"
    ],
    "population": 63645,
    "centre": {
      "lat": 49.475,
      "lon": 5.7842
    }
  },
  {
    "codeSiren": "200041515",
    "nom": "CC du Bassin de Pont-à-Mousson",
    "slug": "cc-du-bassin-de-pont-a-mousson-200041515",
    "codesDepartements": [
      "54"
    ],
    "codesCommunes": [
      "54431",
      "54079",
      "54157",
      "54415",
      "54060",
      "54332",
      "54403",
      "54375",
      "54279",
      "54546",
      "54027"
    ],
    "population": 40203,
    "centre": {
      "lat": 48.886,
      "lon": 6.0527
    }
  },
  {
    "codeSiren": "245701404",
    "nom": "CC du Pays Haut Val d'Alzette",
    "slug": "cc-du-pays-haut-val-d-alzette-245701404",
    "codesDepartements": [
      "54",
      "57"
    ],
    "codesCommunes": [
      "54580",
      "54521"
    ],
    "population": 29465,
    "centre": {
      "lat": 49.4312,
      "lon": 5.9654
    }
  },
  {
    "codeSiren": "245400189",
    "nom": "CC des Pays du Sel et du Vermois",
    "slug": "cc-des-pays-du-sel-et-du-vermois-245400189",
    "codesDepartements": [
      "54"
    ],
    "codesCommunes": [
      "54159",
      "54483",
      "54549",
      "54462",
      "54509",
      "54145"
    ],
    "population": 28698,
    "centre": {
      "lat": 48.5972,
      "lon": 6.3151
    }
  },
  {
    "codeSiren": "200070845",
    "nom": "CC Orne Lorraine Confluences",
    "slug": "cc-orne-lorraine-confluences-200070845",
    "codesDepartements": [
      "54"
    ],
    "codesCommunes": [
      "54099",
      "54273",
      "54280",
      "54263",
      "54028",
      "54136",
      "54542",
      "54391",
      "54286",
      "54227",
      "54051",
      "54036",
      "54371",
      "54171",
      "54253",
      "54302"
    ],
    "population": 52850,
    "centre": {
      "lat": 49.2109,
      "lon": 5.8758
    }
  },
  {
    "codeSiren": "245400601",
    "nom": "CC du Bassin de Pompey",
    "slug": "cc-du-bassin-de-pompey-245400601",
    "codesDepartements": [
      "54"
    ],
    "codesCommunes": [
      "54115",
      "54215",
      "54318",
      "54430",
      "54090",
      "54150",
      "54305",
      "54351",
      "54490",
      "54188",
      "54338"
    ],
    "population": 39626,
    "centre": {
      "lat": 48.7619,
      "lon": 6.1215
    }
  },
  {
    "codeSiren": "245400171",
    "nom": "CC Moselle et Madon",
    "slug": "cc-moselle-et-madon-245400171",
    "codesDepartements": [
      "54"
    ],
    "codesCommunes": [
      "54397",
      "54111",
      "54459",
      "54366",
      "54432",
      "54123",
      "54196",
      "54043",
      "54364",
      "54437",
      "54596",
      "54336",
      "54352",
      "54586"
    ],
    "population": 28192,
    "centre": {
      "lat": 48.6074,
      "lon": 6.1012
    }
  },
  {
    "codeSiren": "200043693",
    "nom": "CC Terre Lorraine du Longuyonnais",
    "slug": "cc-terre-lorraine-du-longuyonnais-200043693",
    "codesDepartements": [
      "54"
    ],
    "codesCommunes": [
      "54322",
      "54428",
      "54067",
      "54572"
    ],
    "population": 15334,
    "centre": {
      "lat": 49.4573,
      "lon": 5.6328
    }
  },
  {
    "codeSiren": "200067643",
    "nom": "CC Meurthe Mortagne Moselle",
    "slug": "cc-meurthe-mortagne-moselle-200067643",
    "codesDepartements": [
      "54"
    ],
    "codesCommunes": [
      "54076",
      "54152",
      "54054",
      "54222",
      "54383"
    ],
    "population": 16456,
    "centre": {
      "lat": 48.4867,
      "lon": 6.4031
    }
  },
  {
    "codeSiren": "200070290",
    "nom": "CC Coeur du Pays Haut",
    "slug": "cc-coeur-du-pays-haut-200070290",
    "codesDepartements": [
      "54",
      "55"
    ],
    "codesCommunes": [
      "54533",
      "54029",
      "54425",
      "54536",
      "54149",
      "54362",
      "54284",
      "54295",
      "54084"
    ],
    "population": 23280,
    "centre": {
      "lat": 49.3626,
      "lon": 5.8506
    }
  },
  {
    "codeSiren": "200070589",
    "nom": "CC de Seille et Grand Couronné",
    "slug": "cc-de-seille-et-grand-couronne-200070589",
    "codesDepartements": [
      "54"
    ],
    "codesCommunes": [
      "54113",
      "54089",
      "54400",
      "54186",
      "54315",
      "54276",
      "54059",
      "54100"
    ],
    "population": 18955,
    "centre": {
      "lat": 48.7922,
      "lon": 6.3005
    }
  },
  {
    "codeSiren": "200069433",
    "nom": "CC de Vezouze en Piémont",
    "slug": "cc-de-vezouze-en-piemont-200069433",
    "codesDepartements": [
      "54"
    ],
    "codesCommunes": [
      "54129",
      "54040",
      "54077"
    ],
    "population": 11483,
    "centre": {
      "lat": 48.5512,
      "lon": 6.865
    }
  },
  {
    "codeSiren": "245400510",
    "nom": "CC du Pays de Colombey et du Sud Toulois",
    "slug": "cc-du-pays-de-colombey-et-du-sud-toulois-245400510",
    "codesDepartements": [
      "54",
      "88"
    ],
    "codesCommunes": [
      "54135",
      "54080"
    ],
    "population": 11235,
    "centre": {
      "lat": 48.496,
      "lon": 5.8824
    }
  },
  {
    "codeSiren": "200035772",
    "nom": "CC du Pays du Saintois",
    "slug": "cc-du-pays-du-saintois-200035772",
    "codesDepartements": [
      "54"
    ],
    "codesCommunes": [
      "54563",
      "54109",
      "54465"
    ],
    "population": 14229,
    "centre": {
      "lat": 48.4562,
      "lon": 6.1456
    }
  },
  {
    "codeSiren": "200070738",
    "nom": "CC Mad et Moselle",
    "slug": "cc-mad-et-moselle-200070738",
    "codesDepartements": [
      "54",
      "57"
    ],
    "codesCommunes": [
      "54518",
      "54353"
    ],
    "population": 19144,
    "centre": {
      "lat": 48.9568,
      "lon": 5.9252
    }
  },
  {
    "codeSiren": "245400759",
    "nom": "CC du Pays du Sanon",
    "slug": "cc-du-pays-du-sanon-245400759",
    "codesDepartements": [
      "54"
    ],
    "codesCommunes": [
      "54176"
    ],
    "population": 5795,
    "centre": {
      "lat": 48.6734,
      "lon": 6.524
    }
  },
  {
    "codeSiren": "200093201",
    "nom": "Métropole Européenne de Lille",
    "slug": "metropole-europeenne-de-lille-200093201",
    "codesDepartements": [
      "59"
    ],
    "codesCommunes": [
      "59350",
      "59599",
      "59512",
      "59009",
      "59650",
      "59378",
      "59328",
      "59017",
      "59360",
      "59368",
      "59410",
      "59646",
      "59279",
      "59163",
      "59507",
      "59220",
      "59299",
      "59648",
      "59286",
      "59508",
      "59367",
      "59421",
      "59560",
      "59527",
      "59152",
      "59386",
      "59636",
      "59011",
      "59426",
      "59090",
      "59343",
      "59339",
      "59143",
      "59457",
      "59352",
      "59317",
      "59653",
      "59482",
      "59051",
      "59553",
      "59524",
      "59044",
      "59656",
      "59202",
      "59052",
      "59098",
      "59278",
      "59566",
      "59477",
      "59598",
      "59585",
      "59005"
    ],
    "population": 1194040,
    "centre": {
      "lat": 50.6472,
      "lon": 3.0308
    }
  },
  {
    "codeSiren": "245900428",
    "nom": "CU de Dunkerque",
    "slug": "cu-de-dunkerque-245900428",
    "codesDepartements": [
      "59"
    ],
    "codesCommunes": [
      "59183",
      "59155",
      "59271",
      "59273",
      "59588",
      "59131",
      "59094",
      "59359",
      "59272",
      "59107",
      "59260",
      "59340"
    ],
    "population": 192635,
    "centre": {
      "lat": 51.0004,
      "lon": 2.3326
    }
  },
  {
    "codeSiren": "245901160",
    "nom": "CA Valenciennes Métropole",
    "slug": "ca-valenciennes-metropole-245901160",
    "codesDepartements": [
      "59"
    ],
    "codesCommunes": [
      "59606",
      "59014",
      "59383",
      "59112",
      "59544",
      "59616",
      "59153",
      "59447",
      "59253",
      "59032",
      "59079",
      "59484",
      "59459",
      "59160",
      "59301",
      "59369"
    ],
    "population": 191885,
    "centre": {
      "lat": 50.3734,
      "lon": 3.55
    }
  },
  {
    "codeSiren": "200044618",
    "nom": "CA Douaisis Agglo",
    "slug": "ca-douaisis-agglo-200044618",
    "codesDepartements": [
      "59"
    ],
    "codesCommunes": [
      "59178",
      "59569",
      "59654",
      "59028",
      "59165",
      "59327",
      "59509",
      "59239",
      "59234",
      "59170",
      "59329",
      "59276",
      "59489"
    ],
    "population": 148901,
    "centre": {
      "lat": 50.362,
      "lon": 3.1172
    }
  },
  {
    "codeSiren": "200068500",
    "nom": "CA de Cambrai",
    "slug": "ca-de-cambrai-200068500",
    "codesDepartements": [
      "59"
    ],
    "codesCommunes": [
      "59122",
      "59428"
    ],
    "population": 80469,
    "centre": {
      "lat": 50.139,
      "lon": 3.2077
    }
  },
  {
    "codeSiren": "200043396",
    "nom": "CA Maubeuge Val de Sambre",
    "slug": "ca-maubeuge-val-de-sambre-200043396",
    "codesDepartements": [
      "59"
    ],
    "codesCommunes": [
      "59392",
      "59291",
      "59324",
      "59033",
      "59225",
      "59365",
      "59230",
      "59514"
    ],
    "population": 122909,
    "centre": {
      "lat": 50.2519,
      "lon": 3.9915
    }
  },
  {
    "codeSiren": "200040947",
    "nom": "CA Coeur de Flandre",
    "slug": "ca-coeur-de-flandre-200040947",
    "codesDepartements": [
      "59"
    ],
    "codesCommunes": [
      "59295",
      "59043",
      "59431",
      "59580"
    ],
    "population": 102562,
    "centre": {
      "lat": 50.7687,
      "lon": 2.5912
    }
  },
  {
    "codeSiren": "200042190",
    "nom": "CA de la Porte du Hainaut",
    "slug": "ca-de-la-porte-du-hainaut-200042190",
    "codesDepartements": [
      "59"
    ],
    "codesCommunes": [
      "59172",
      "59526",
      "59491",
      "59179",
      "59205",
      "59603",
      "59632",
      "59207",
      "59302",
      "59092",
      "59002",
      "59284",
      "59504",
      "59361"
    ],
    "population": 158351,
    "centre": {
      "lat": 50.3792,
      "lon": 3.4043
    }
  },
  {
    "codeSiren": "200030633",
    "nom": "CA du Caudrésis et du Catésis",
    "slug": "ca-du-caudresis-et-du-catesis-200030633",
    "codesDepartements": [
      "59"
    ],
    "codesCommunes": [
      "59139",
      "59136",
      "59037"
    ],
    "population": 63265,
    "centre": {
      "lat": 50.1181,
      "lon": 3.4904
    }
  },
  {
    "codeSiren": "245901152",
    "nom": "CA Coeur d'Ostrevent",
    "slug": "ca-coeur-d-ostrevent-245901152",
    "codesDepartements": [
      "59"
    ],
    "codesCommunes": [
      "59574",
      "59008",
      "59456",
      "59227",
      "59024",
      "59375",
      "59414",
      "59390"
    ],
    "population": 70247,
    "centre": {
      "lat": 50.369,
      "lon": 3.2526
    }
  },
  {
    "codeSiren": "200043404",
    "nom": "CC du Sud Avesnois",
    "slug": "cc-du-sud-avesnois-200043404",
    "codesDepartements": [
      "59"
    ],
    "codesCommunes": [
      "59249"
    ],
    "population": 24414,
    "centre": {
      "lat": 50.0523,
      "lon": 4.1055
    }
  },
  {
    "codeSiren": "245900758",
    "nom": "CC Flandre Lys",
    "slug": "cc-flandre-lys-245900758",
    "codesDepartements": [
      "59",
      "62"
    ],
    "codesCommunes": [
      "59400",
      "59212",
      "59268"
    ],
    "population": 40142,
    "centre": {
      "lat": 50.6298,
      "lon": 2.6847
    }
  },
  {
    "codeSiren": "200041960",
    "nom": "CC Pévèle-Carembault",
    "slug": "cc-pevele-carembault-200041960",
    "codesDepartements": [
      "59"
    ],
    "codesCommunes": [
      "59449",
      "59586",
      "59452",
      "59462",
      "59168",
      "59592",
      "59266",
      "59398"
    ],
    "population": 98918,
    "centre": {
      "lat": 50.5099,
      "lon": 3.1562
    }
  },
  {
    "codeSiren": "200040954",
    "nom": "CC des Hauts de Flandre",
    "slug": "cc-des-hauts-de-flandre-200040954",
    "codesDepartements": [
      "59"
    ],
    "codesCommunes": [
      "59663",
      "59309",
      "59067"
    ],
    "population": 53525,
    "centre": {
      "lat": 50.9156,
      "lon": 2.3993
    }
  },
  {
    "codeSiren": "200043321",
    "nom": "CC du Pays de Mormal",
    "slug": "cc-du-pays-de-mormal-200043321",
    "codesDepartements": [
      "59"
    ],
    "codesCommunes": [
      "59481"
    ],
    "population": 48132,
    "centre": {
      "lat": 50.2109,
      "lon": 3.7308
    }
  },
  {
    "codeSiren": "245901038",
    "nom": "CC du Pays Solesmois",
    "slug": "cc-du-pays-solesmois-245901038",
    "codesDepartements": [
      "59"
    ],
    "codesCommunes": [
      "59571"
    ],
    "population": 14568,
    "centre": {
      "lat": 50.2055,
      "lon": 3.4933
    }
  },
  {
    "codeSiren": "200043263",
    "nom": "CC Coeur de l'Avesnois",
    "slug": "cc-coeur-de-l-avesnois-200043263",
    "codesDepartements": [
      "59"
    ],
    "codesCommunes": [
      "59036"
    ],
    "population": 28870,
    "centre": {
      "lat": 50.1215,
      "lon": 3.938
    }
  },
  {
    "codeSiren": "246300701",
    "nom": "Clermont Auvergne Métropole",
    "slug": "clermont-auvergne-metropole-246300701",
    "codesDepartements": [
      "63"
    ],
    "codesCommunes": [
      "63113",
      "63124",
      "63075",
      "63284",
      "63032",
      "63014",
      "63164",
      "63063",
      "63193",
      "63307",
      "63070",
      "63069",
      "63308",
      "63019",
      "63345",
      "63042",
      "63263",
      "63099",
      "63272",
      "63254",
      "63141"
    ],
    "population": 296677,
    "centre": {
      "lat": 45.774,
      "lon": 3.1156
    }
  },
  {
    "codeSiren": "200070753",
    "nom": "CA Riom Limagne et Volcans",
    "slug": "ca-riom-limagne-et-volcans-200070753",
    "codesDepartements": [
      "63"
    ],
    "codesCommunes": [
      "63300",
      "63103",
      "63470",
      "63245",
      "63148",
      "63417",
      "63213",
      "63322",
      "63327",
      "63092",
      "63244",
      "63381",
      "63224",
      "63089",
      "63150",
      "63212",
      "63203",
      "63204",
      "63083",
      "63200",
      "63362",
      "63215",
      "63278"
    ],
    "population": 68319,
    "centre": {
      "lat": 45.8905,
      "lon": 3.0811
    }
  },
  {
    "codeSiren": "200070407",
    "nom": "CA Agglo Pays d'Issoire",
    "slug": "ca-agglo-pays-d-issoire-200070407",
    "codesDepartements": [
      "63"
    ],
    "codesCommunes": [
      "63178",
      "63050",
      "63352",
      "63022",
      "63282",
      "63080",
      "63415",
      "63121",
      "63052",
      "63321",
      "63160",
      "63091",
      "63234",
      "63275",
      "63250",
      "63261",
      "63269",
      "63109",
      "63448"
    ],
    "population": 56681,
    "centre": {
      "lat": 45.4648,
      "lon": 3.2205
    }
  },
  {
    "codeSiren": "200070712",
    "nom": "CC Thiers Dore et Montagne",
    "slug": "cc-thiers-dore-et-montagne-200070712",
    "codesDepartements": [
      "63"
    ],
    "codesCommunes": [
      "63430",
      "63125",
      "63291",
      "63393",
      "63231",
      "63066",
      "63271",
      "63151",
      "63072",
      "63016",
      "63102"
    ],
    "population": 36767,
    "centre": {
      "lat": 45.8532,
      "lon": 3.5832
    }
  },
  {
    "codeSiren": "246301097",
    "nom": "CC Entre Dore et Allier",
    "slug": "cc-entre-dore-et-allier-246301097",
    "codesDepartements": [
      "63"
    ],
    "codesCommunes": [
      "63195",
      "63265",
      "63276",
      "63229",
      "63180",
      "63131",
      "63128",
      "63420",
      "63296"
    ],
    "population": 19687,
    "centre": {
      "lat": 45.8535,
      "lon": 3.391
    }
  },
  {
    "codeSiren": "200070761",
    "nom": "CC Ambert Livradois Forez",
    "slug": "cc-ambert-livradois-forez-200070761",
    "codesDepartements": [
      "63"
    ],
    "codesCommunes": [
      "63003",
      "63010",
      "63211",
      "63132",
      "63179",
      "63207"
    ],
    "population": 27596,
    "centre": {
      "lat": 45.5423,
      "lon": 3.7051
    }
  },
  {
    "codeSiren": "200069177",
    "nom": "CC Mond'Arverne Communauté",
    "slug": "cc-mond-arverne-communaute-200069177",
    "codesDepartements": [
      "63"
    ],
    "codesCommunes": [
      "63457",
      "63214",
      "63455",
      "63302",
      "63262",
      "63026",
      "63227",
      "63315",
      "63084",
      "63425",
      "63350",
      "63126",
      "63396",
      "63395",
      "63378",
      "63120",
      "63413"
    ],
    "population": 41032,
    "centre": {
      "lat": 45.656,
      "lon": 3.1604
    }
  },
  {
    "codeSiren": "200067627",
    "nom": "CC Billom Communauté",
    "slug": "cc-billom-communaute-200067627",
    "codesDepartements": [
      "63"
    ],
    "codesCommunes": [
      "63040",
      "63453",
      "63226",
      "63106",
      "63034",
      "63273",
      "63368",
      "63146"
    ],
    "population": 26098,
    "centre": {
      "lat": 45.7293,
      "lon": 3.3622
    }
  },
  {
    "codeSiren": "200072080",
    "nom": "CC du Pays de Saint-Eloy",
    "slug": "cc-du-pays-de-saint-eloy-200072080",
    "codesDepartements": [
      "63"
    ],
    "codesCommunes": [
      "63338",
      "63354",
      "63281",
      "63233",
      "63471"
    ],
    "population": 15464,
    "centre": {
      "lat": 46.0908,
      "lon": 2.7594
    }
  },
  {
    "codeSiren": "200071199",
    "nom": "CC Plaine Limagne",
    "slug": "cc-plaine-limagne-200071199",
    "codesDepartements": [
      "63"
    ],
    "codesCommunes": [
      "63210",
      "63001",
      "63295",
      "63201",
      "63143",
      "63400",
      "63013",
      "63012",
      "63432",
      "63387"
    ],
    "population": 21410,
    "centre": {
      "lat": 45.9827,
      "lon": 3.2909
    }
  },
  {
    "codeSiren": "200072098",
    "nom": "CC Combrailles Sioule et Morge",
    "slug": "cc-combrailles-sioule-et-morge-200072098",
    "codesDepartements": [
      "63"
    ],
    "codesCommunes": [
      "63116",
      "63349",
      "63004",
      "63198",
      "63206",
      "63035",
      "63093"
    ],
    "population": 19861,
    "centre": {
      "lat": 46.0124,
      "lon": 2.9601
    }
  },
  {
    "codeSiren": "246300966",
    "nom": "CC du Massif du Sancy",
    "slug": "cc-du-massif-du-sancy-246300966",
    "codesDepartements": [
      "15",
      "63"
    ],
    "codesCommunes": [
      "63047",
      "63038",
      "63236",
      "63380"
    ],
    "population": 9576,
    "centre": {
      "lat": 45.4879,
      "lon": 2.8797
    }
  },
  {
    "codeSiren": "200071215",
    "nom": "CC Chavanon Combrailles et Volcans",
    "slug": "cc-chavanon-combrailles-et-volcans-200071215",
    "codesDepartements": [
      "63"
    ],
    "codesCommunes": [
      "63085",
      "63055",
      "63225",
      "63048",
      "63165"
    ],
    "population": 12657,
    "centre": {
      "lat": 45.7597,
      "lon": 2.6469
    }
  },
  {
    "codeSiren": "200069169",
    "nom": "CC Dômes Sancy Artense",
    "slug": "cc-domes-sancy-artense-200069169",
    "codesDepartements": [
      "63"
    ],
    "codesCommunes": [
      "63397",
      "63163",
      "63248",
      "63257",
      "63305"
    ],
    "population": 12591,
    "centre": {
      "lat": 45.6238,
      "lon": 2.7367
    }
  },
  {
    "codeSiren": "248100737",
    "nom": "CA de l'Albigeois (C2A)",
    "slug": "ca-de-l-albigeois-c2a-248100737",
    "codesDepartements": [
      "81"
    ],
    "codesCommunes": [
      "81004",
      "81257",
      "81144",
      "81218",
      "81156",
      "81018",
      "81052",
      "81284",
      "81074",
      "81063",
      "81097",
      "81297",
      "81079",
      "81274",
      "81059",
      "81232"
    ],
    "population": 84183,
    "centre": {
      "lat": 43.9009,
      "lon": 2.1392
    }
  },
  {
    "codeSiren": "248100430",
    "nom": "CA de Castres Mazamet",
    "slug": "ca-de-castres-mazamet-248100430",
    "codesDepartements": [
      "81"
    ],
    "codesCommunes": [
      "81065",
      "81163",
      "81120",
      "81021",
      "81209",
      "81002",
      "81204",
      "81130",
      "81238",
      "81307",
      "81196",
      "81195"
    ],
    "population": 78974,
    "centre": {
      "lat": 43.5435,
      "lon": 2.3376
    }
  },
  {
    "codeSiren": "200066124",
    "nom": "CA Gaillac-Graulhet",
    "slug": "ca-gaillac-graulhet-200066124",
    "codesDepartements": [
      "81"
    ],
    "codesCommunes": [
      "81099",
      "81105",
      "81220",
      "81145",
      "81070",
      "81038",
      "81131",
      "81039",
      "81104",
      "81171",
      "81046",
      "81051",
      "81276",
      "81283",
      "81294",
      "81064",
      "81225",
      "81202",
      "81112",
      "81248",
      "81093",
      "81043",
      "81117",
      "81215",
      "81106",
      "81138",
      "81208",
      "81164",
      "81228",
      "81217",
      "81067"
    ],
    "population": 76216,
    "centre": {
      "lat": 43.905,
      "lon": 1.808
    }
  },
  {
    "codeSiren": "200034023",
    "nom": "CC Tarn-Agout",
    "slug": "cc-tarn-agout-200034023",
    "codesDepartements": [
      "31",
      "81"
    ],
    "codesCommunes": [
      "81140",
      "81271",
      "81116",
      "81261",
      "81011",
      "81159",
      "81255",
      "81298"
    ],
    "population": 29922,
    "centre": {
      "lat": 43.6843,
      "lon": 1.7772
    }
  },
  {
    "codeSiren": "200040905",
    "nom": "CC Carmausin-Ségala",
    "slug": "cc-carmausin-segala-200040905",
    "codesDepartements": [
      "81"
    ],
    "codesCommunes": [
      "81060",
      "81033",
      "81048",
      "81244",
      "81170",
      "81101",
      "81168",
      "81201",
      "81249",
      "81306",
      "81230",
      "81291",
      "81292",
      "81114",
      "81319"
    ],
    "population": 30115,
    "centre": {
      "lat": 44.0791,
      "lon": 2.1801
    }
  },
  {
    "codeSiren": "248100158",
    "nom": "CC du Sor et de l'Agout",
    "slug": "cc-du-sor-et-de-l-agout-248100158",
    "codesDepartements": [
      "81"
    ],
    "codesCommunes": [
      "81273",
      "81219",
      "81289",
      "81281",
      "81325",
      "81081",
      "81312",
      "81054",
      "81251",
      "81143",
      "81235",
      "81076",
      "81084"
    ],
    "population": 23206,
    "centre": {
      "lat": 43.5367,
      "lon": 2.0264
    }
  },
  {
    "codeSiren": "200034049",
    "nom": "CC Centre Tarn",
    "slug": "cc-centre-tarn-200034049",
    "codesDepartements": [
      "81"
    ],
    "codesCommunes": [
      "81222",
      "81182",
      "81233",
      "81147",
      "81088",
      "81119",
      "81133",
      "81211"
    ],
    "population": 11276,
    "centre": {
      "lat": 43.7774,
      "lon": 2.2337
    }
  },
  {
    "codeSiren": "243100567",
    "nom": "CC Aux sources du Canal du Midi",
    "slug": "cc-aux-sources-du-canal-du-midi-243100567",
    "codesDepartements": [
      "11",
      "31",
      "81"
    ],
    "codesCommunes": [
      "81288",
      "81032",
      "81142",
      "81200"
    ],
    "population": 21764,
    "centre": {
      "lat": 43.4641,
      "lon": 2.0081
    }
  },
  {
    "codeSiren": "200066553",
    "nom": "CC du Haut-Languedoc",
    "slug": "cc-du-haut-languedoc-200066553",
    "codesDepartements": [
      "34",
      "81"
    ],
    "codesCommunes": [
      "81124",
      "81192",
      "81314",
      "81014"
    ],
    "population": 7954,
    "centre": {
      "lat": 43.6442,
      "lon": 2.7761
    }
  },
  {
    "codeSiren": "200066561",
    "nom": "CC Sidobre Vals et Plateaux",
    "slug": "cc-sidobre-vals-et-plateaux-200066561",
    "codesDepartements": [
      "81"
    ],
    "codesCommunes": [
      "81227",
      "81042",
      "81128",
      "81037",
      "81062",
      "81031",
      "81305",
      "81267",
      "81269",
      "81177"
    ],
    "population": 12437,
    "centre": {
      "lat": 43.695,
      "lon": 2.4196
    }
  },
  {
    "codeSiren": "200034056",
    "nom": "CC du Lautrécois et du Pays d'Agout",
    "slug": "cc-du-lautrecois-et-du-pays-d-agout-200034056",
    "codesDepartements": [
      "81"
    ],
    "codesCommunes": [
      "81139",
      "81315",
      "81078",
      "81266",
      "81092",
      "81132",
      "81311",
      "81098",
      "81174",
      "81286",
      "81075",
      "81258"
    ],
    "population": 14303,
    "centre": {
      "lat": 43.6943,
      "lon": 2.0449
    }
  },
  {
    "codeSiren": "248100745",
    "nom": "CC Thoré Montagne Noire",
    "slug": "cc-thore-montagne-noire-248100745",
    "codesDepartements": [
      "81"
    ],
    "codesCommunes": [
      "81115",
      "81036",
      "81239",
      "81005"
    ],
    "population": 5057,
    "centre": {
      "lat": 43.4992,
      "lon": 2.5282
    }
  },
  {
    "codeSiren": "248100497",
    "nom": "CC Val 81",
    "slug": "cc-val-81-248100497",
    "codesDepartements": [
      "81"
    ],
    "codesCommunes": [
      "81308",
      "81277",
      "81285",
      "81253"
    ],
    "population": 5559,
    "centre": {
      "lat": 44.0162,
      "lon": 2.367
    }
  },
  {
    "codeSiren": "200034031",
    "nom": "CC des Monts d'Alban et du Villefranchois",
    "slug": "cc-des-monts-d-alban-et-du-villefranchois-200034031",
    "codesDepartements": [
      "81"
    ],
    "codesCommunes": [
      "81317",
      "81003",
      "81026",
      "81203",
      "81010",
      "81190",
      "81295"
    ],
    "population": 6360,
    "centre": {
      "lat": 43.8621,
      "lon": 2.4108
    }
  },
  {
    "codeSiren": "200034064",
    "nom": "CC du Cordais et du Causse (4 C)",
    "slug": "cc-du-cordais-et-du-causse-4-c-200034064",
    "codesDepartements": [
      "81"
    ],
    "codesCommunes": [
      "81069",
      "81206"
    ],
    "population": 5381,
    "centre": {
      "lat": 44.0784,
      "lon": 1.8622
    }
  },
  {
    "codeSiren": "248200099",
    "nom": "CA Grand Montauban",
    "slug": "ca-grand-montauban-248200099",
    "codesDepartements": [
      "82"
    ],
    "codesCommunes": [
      "82121",
      "82124",
      "82025",
      "82167",
      "82044",
      "82098",
      "82085",
      "82052",
      "82090",
      "82150",
      "82195",
      "82001"
    ],
    "population": 81397,
    "centre": {
      "lat": 44.013,
      "lon": 1.3231
    }
  },
  {
    "codeSiren": "200066322",
    "nom": "CC Terres des Confluences",
    "slug": "cc-terres-des-confluences-200066322",
    "codesDepartements": [
      "82"
    ],
    "codesCommunes": [
      "82033",
      "82112",
      "82096",
      "82169",
      "82171",
      "82031",
      "82051",
      "82019",
      "82127",
      "82063",
      "82099",
      "82030",
      "82152",
      "82045",
      "82035",
      "82003",
      "82086"
    ],
    "population": 42367,
    "centre": {
      "lat": 44.0701,
      "lon": 1.1146
    }
  },
  {
    "codeSiren": "248200057",
    "nom": "CC du Quercy Caussadais",
    "slug": "cc-du-quercy-caussadais-248200057",
    "codesDepartements": [
      "82"
    ],
    "codesCommunes": [
      "82037",
      "82179",
      "82149",
      "82131",
      "82126",
      "82113",
      "82110",
      "82148",
      "82119",
      "82039",
      "82159",
      "82174",
      "82092",
      "82162",
      "82040",
      "82095"
    ],
    "population": 20434,
    "centre": {
      "lat": 44.1972,
      "lon": 1.5168
    }
  },
  {
    "codeSiren": "200066652",
    "nom": "CC Grand Sud Tarn-et-Garonne",
    "slug": "cc-grand-sud-tarn-et-garonne-200066652",
    "codesDepartements": [
      "82"
    ],
    "codesCommunes": [
      "82125",
      "82190",
      "82075",
      "82079",
      "82142",
      "82123",
      "82136",
      "82048",
      "82005",
      "82027",
      "82062",
      "82017",
      "82135",
      "82194",
      "82105",
      "82173",
      "82023",
      "82178",
      "82028",
      "82057",
      "82114",
      "82188",
      "82020",
      "82014",
      "82043"
    ],
    "population": 43301,
    "centre": {
      "lat": 43.889,
      "lon": 1.2875
    }
  },
  {
    "codeSiren": "200066884",
    "nom": "CC Quercy Vert-Aveyron",
    "slug": "cc-quercy-vert-aveyron-200066884",
    "codesDepartements": [
      "82"
    ],
    "codesCommunes": [
      "82134",
      "82161",
      "82002",
      "82115",
      "82018",
      "82132",
      "82176",
      "82184",
      "82066",
      "82026",
      "82192",
      "82145"
    ],
    "population": 21707,
    "centre": {
      "lat": 44.0211,
      "lon": 1.5551
    }
  },
  {
    "codeSiren": "248200016",
    "nom": "CC des Deux Rives",
    "slug": "cc-des-deux-rives-248200016",
    "codesDepartements": [
      "32",
      "47",
      "82"
    ],
    "codesCommunes": [
      "82186",
      "82101",
      "82050",
      "82089",
      "82049",
      "82072",
      "82073",
      "82008",
      "82141",
      "82170",
      "82032",
      "82165",
      "82065",
      "82054",
      "82102",
      "82175",
      "82166",
      "82160",
      "82010",
      "82181",
      "82109"
    ],
    "population": 19013,
    "centre": {
      "lat": 44.1139,
      "lon": 0.8952
    }
  },
  {
    "codeSiren": "248200065",
    "nom": "CC de la Lomagne Tarn-et-Garonnaise",
    "slug": "cc-de-la-lomagne-tarn-et-garonnaise-248200065",
    "codesDepartements": [
      "82"
    ],
    "codesCommunes": [
      "82013",
      "82097",
      "82093",
      "82180",
      "82059",
      "82053",
      "82055",
      "82068"
    ],
    "population": 10003,
    "centre": {
      "lat": 43.9102,
      "lon": 0.9372
    }
  },
  {
    "codeSiren": "200067122",
    "nom": "CC du Pays de Lafrançaise",
    "slug": "cc-du-pays-de-lafrancaise-200067122",
    "codesDepartements": [
      "82"
    ],
    "codesCommunes": [
      "82087",
      "82076",
      "82108",
      "82080",
      "82011",
      "82144",
      "82189",
      "82012",
      "82140",
      "82077",
      "82120"
    ],
    "population": 11246,
    "centre": {
      "lat": 44.1528,
      "lon": 1.2903
    }
  },
  {
    "codeSiren": "248200107",
    "nom": "CC du Quercy Rouergue et des Gorges de l'Aveyron",
    "slug": "cc-du-quercy-rouergue-et-des-gorges-de-l-aveyron-248200107",
    "codesDepartements": [
      "81",
      "82"
    ],
    "codesCommunes": [
      "82155",
      "82038",
      "82088",
      "82187",
      "82137",
      "82191",
      "82147",
      "82172",
      "82029",
      "82041",
      "82082",
      "82056",
      "82069"
    ],
    "population": 7848,
    "centre": {
      "lat": 44.2187,
      "lon": 1.8179
    }
  },
  {
    "codeSiren": "200040418",
    "nom": "CC du Pays de Serres en Quercy",
    "slug": "cc-du-pays-de-serres-en-quercy-200040418",
    "codesDepartements": [
      "82"
    ],
    "codesCommunes": [
      "82094",
      "82117",
      "82042",
      "82151",
      "82022",
      "82182",
      "82168",
      "82111",
      "82024",
      "82185",
      "82153",
      "82016",
      "82154",
      "82183",
      "82116"
    ],
    "population": 8386,
    "centre": {
      "lat": 44.2748,
      "lon": 1.0867
    }
  }
]